osm_id,code,fclass,name,point_x,point_y,lon,lat
358695128,2082,school,East Lake School,-80.6664463000,26.8158942000,-80.66645,26.81589
358696544,2082,school,Gladeview School,-80.6814470000,26.6775663000,-80.68145,26.67757
358696686,2082,school,Gove School,-80.6612418000,26.6773350000,-80.66124,26.67734
358698739,2082,school,Lake Shore High School,-80.6783913000,26.6825660000,-80.67839,26.68257
358698746,2082,school,Lake Shore School,-80.6786691000,26.6850659000,-80.67867,26.68507
358715083,2082,school,Pahokee Elementary School,-80.6622795000,26.8245050000,-80.66228,26.8245
358715088,2082,school,Canal Point Elementary School,-80.6508903000,26.8342268000,-80.65089,26.83423
358715092,2082,school,Glades Central High School,-80.6728356000,26.6900657000,-80.67284,26.69007
358715095,2082,school,Belle Glade Elementary School,-80.6753357000,26.6911768000,-80.67534,26.69118
358715098,2082,school,West Technical Education Center,-80.6831136000,26.7039541000,-80.68311,26.70395
358725681,2082,school,Christ Heritage Academy,-80.4592190000,26.7033974000,-80.45922,26.7034
358746276,2082,school,Palm Beach Community College at Belle Glade Classroom Building A,-80.6883640000,26.6772140000,-80.68836,26.67721
358746279,2082,school,Palm Beach Community College at Belle Glade Classroom Building B,-80.6880510000,26.6774280000,-80.68805,26.67743
358746281,2082,school,Palm Beach Community College at Belle Glade Dolly Hand Cultural Arts Center,-80.6886840000,26.6759550000,-80.68868,26.67596
5348470720,2402,motel,Okeechobee Inn,-80.7189801000,26.6673259000,-80.71898,26.66733
5583795124,2082,school,,-80.6321127000,26.8602220000,-80.63211,26.86022
2617869744,2303,cafe,Village Golf Club,-80.2257076000,26.7164938000,-80.22571,26.71649
3581067945,2501,supermarket,ALDI,-80.2018601000,26.7043943000,-80.20186,26.70439
7124740935,2501,supermarket,Publix,-80.2270218000,26.7077538000,-80.22702,26.70775
358725668,2082,school,Victory Baptist Christian School,-80.1606000000,26.6800660000,-80.1606,26.68007
358742129,2082,school,Liberty Park Elementary School,-80.1461111000,26.6338889000,-80.14611,26.63389
358742397,2082,school,Indian Pines Elementary School,-80.1397222000,26.5922222000,-80.13972,26.59222
3658562947,2402,motel,Hampton Inn,-80.1748448000,26.6186275000,-80.17484,26.61863
5315596703,2501,supermarket,Walmart Neighborhood Market,-80.1484820000,26.5875070000,-80.14848,26.58751
5315596704,2501,supermarket,Walmart Neighborhood Market,-80.1476420000,26.6213770000,-80.14764,26.62138
5315601734,2501,supermarket,Walmart Supercenter,-80.1425370000,26.6494900000,-80.14254,26.64949
6069307994,2303,cafe,The Chill Room,-80.1602370000,26.6180747000,-80.16024,26.61807
7465110644,2501,supermarket,Publix,-80.1450008000,26.5906810000,-80.145,26.59068
7465161729,2501,supermarket,Publix,-80.1685855000,26.6188360000,-80.16859,26.61884
358725678,2082,school,Holy Name of Jesus,-80.1847674000,26.6814548000,-80.18477,26.68145
358740841,2082,school,Western Academy Charter School,-80.2275000000,26.6825000000,-80.2275,26.6825
1266364927,2303,cafe,Starbucks,-80.2482558000,26.6730890000,-80.24826,26.67309
2618914674,2303,cafe,Starbucks,-80.2121463000,26.6506437000,-80.21215,26.65064
2618914685,2303,cafe,,-80.2122670000,26.6506654000,-80.21227,26.65067
2618914811,2303,cafe,,-80.2120122000,26.6498718000,-80.21201,26.64987
2618948099,2501,supermarket,Whole Foods Market,-80.2063769000,26.6412294000,-80.20638,26.64123
3550587444,2303,cafe,Starbucks,-80.2199753000,26.6815019000,-80.21998,26.6815
3660805378,2501,supermarket,Publix,-80.2354893000,26.6517041000,-80.23549,26.6517
3660936282,2082,school,Temple Beth Torah and Preschool,-80.2573787000,26.6685180000,-80.25738,26.66852
4080738181,2501,supermarket,Publix,-80.2055406000,26.6754816000,-80.20554,26.67548
5315601401,2501,supermarket,Walmart Supercenter,-80.1994470000,26.6891420000,-80.19945,26.68914
6196775691,2504,mall,Wellington Mall,-80.2085220000,26.6464251000,-80.20852,26.64643
6804895785,2501,supermarket,Publix,-80.2452722000,26.6837573000,-80.24527,26.68376
3388688954,2501,supermarket,Publix,-80.2016317000,26.6190712000,-80.20163,26.61907
3658553494,2082,school,Wellington Preparatory School,-80.1922542000,26.6185708000,-80.19225,26.61857
3659792298,2082,school,,-80.1879785000,26.6102701000,-80.18798,26.61027
3809325099,2501,supermarket,Walmart Neighborhood Market,-80.2070782000,26.6185291000,-80.20708,26.61853
358725591,2082,school,Greenacres Country Day School,-80.1047648000,26.8297833000,-80.10476,26.82978
358725595,2082,school,Greenacres Christian Academy,-80.1072649000,26.8147837000,-80.10726,26.81478
358725692,2082,school,Marian School for Exceptional Children,-80.0653193000,26.7939511000,-80.06532,26.79395
358725694,2082,school,Lake Park Developmental Center,-80.0653168000,26.7939300000,-80.06532,26.79393
358725699,2082,school,Faith Lutheran Christian Day School,-80.0579699000,26.7952612000,-80.05797,26.79526
358725702,2082,school,Driftwood Academy,-80.0589303000,26.7964510000,-80.05893,26.79645
358725707,2082,school,Boynton Beach Development Center,-80.0936534000,26.8031175000,-80.09365,26.80312
358725755,2082,school,Saint Clares,-80.0886551000,26.8412823000,-80.08866,26.84128
358725763,2082,school,North Palm Beach Private School,-80.0597814000,26.8523246000,-80.05978,26.85232
358736919,2082,school,Lake Worth Developmental Center,-80.0586524000,26.7958955000,-80.05865,26.7959
358740787,2082,school,William T Dwyer Adult Education Center,-80.1046375000,26.8776371000,-80.10464,26.87764
358740942,2082,school,Watson B Duncan Middle School,-80.1150979000,26.8479616000,-80.1151,26.84796
358741803,2082,school,Palm Beach Marine Institute,-80.0636111000,26.8738889000,-80.06361,26.87389
358741814,2082,school,North Transition Elementary School,-80.0797404000,26.8546071000,-80.07974,26.85461
358743191,2082,school,Bright Futures International,-80.0713889000,26.8175000000,-80.07139,26.8175
358752159,2082,school,Palm Beach Community College at Palm Beach Gardens Center for Early Learning,-80.0842190000,26.8382460000,-80.08422,26.83825
846058484,2501,supermarket,Publix,-80.0584104000,26.8046787000,-80.05841,26.80468
1307896228,2402,motel,Super 8 Motel,-80.0599907000,26.8205474000,-80.05999,26.82055
1307896229,2402,motel,Camelot Motor Lodge,-80.0604376000,26.8285442000,-80.06044,26.82854
2621242779,2501,supermarket,Whole Foods Market,-80.0944426000,26.8481936000,-80.09444,26.84819
2621267124,2303,cafe,The Cheescake Factory,-80.0929064000,26.8497069000,-80.09291,26.84971
3208571570,2303,cafe,Starbucks,-80.0600715000,26.8462910000,-80.06007,26.84629
3208571602,2501,supermarket,Publix,-80.0596592000,26.8452036000,-80.05966,26.8452
3208571749,2501,supermarket,Publix,-80.0616922000,26.8941244000,-80.06169,26.89412
3238913357,2504,mall,Legacy Place,-80.0915965000,26.8412755000,-80.0916,26.84128
3260532790,2504,mall,Northlake Promenade Shoppes,-80.0583519000,26.8052815000,-80.05835,26.80528
4344319695,2501,supermarket,Walmart Supercenter,-80.0883360000,26.7951730000,-80.08834,26.79517
4351540291,2501,supermarket,Publix,-80.0972385000,26.8653889000,-80.09724,26.86539
5344021742,2303,cafe,Starbucks,-80.1071830000,26.8840451000,-80.10718,26.88405
5625313575,2303,cafe,Crux Coffee Roasters,-80.1145833000,26.8886563000,-80.11458,26.88866
6342191501,2501,supermarket,Aldi,-80.0843153000,26.7982403000,-80.08432,26.79824
6635843002,2501,supermarket,Publix,-80.1179414000,26.8808298000,-80.11794,26.88083
6635843003,2303,cafe,Starbucks,-80.1177572000,26.8825165000,-80.11776,26.88252
6943527493,2501,supermarket,Publix,-80.1063233000,26.8841095000,-80.10632,26.88411
358725601,2082,school,Graham-Eckes Palm Beach Academy,-80.0539303000,26.6928433000,-80.05393,26.69284
358725624,2082,school,Covenant Christian Academy,-80.0608749000,26.6867324000,-80.06087,26.68673
358741598,2082,school,Pleasant City Elementary School,-80.0550000000,26.7336111000,-80.055,26.73361
358743379,2082,school,Acs Roosevelt Center,-80.0617819000,26.7276182000,-80.06178,26.72762
367819305,2014,arts_centre,Armory Art Center,-80.0611460000,26.6985340000,-80.06115,26.69853
367819421,2014,arts_centre,Easel Art Center,-80.0615440000,26.6987020000,-80.06154,26.6987
367819423,2014,arts_centre,Armory Art Center Sculpture Annex,-80.0605529000,26.6985723000,-80.06055,26.69857
2611322497,2504,mall,Rosemary Square,-80.0570599000,26.7084954000,-80.05706,26.7085
3046622955,2303,cafe,Sprinkles Palm Beach,-80.0407572000,26.7186142000,-80.04076,26.71861
5077945571,2501,supermarket,Publix,-80.0396839000,26.7197675000,-80.03968,26.71977
5786295389,2303,cafe,Starbucks,-80.0354410000,26.7004945000,-80.03544,26.70049
6197055559,2504,mall,Shout Supermarket,-80.0516669000,26.7136113000,-80.05167,26.71361
6685708948,2303,cafe,Starbucks,-80.0567599000,26.7081437000,-80.05676,26.70814
358715905,2082,school,North Technical Education Center,-80.0928201000,26.7878401000,-80.09282,26.78784
358715928,2082,school,Riviera Beach Elementary School,-80.0580969000,26.7733962000,-80.0581,26.7734
358725608,2082,school,Trinity United Methodist Kindergarden,-80.0711529000,26.7675630000,-80.07115,26.76756
358725610,2082,school,Nativity Lutheran Early Childhood Center,-80.0803198000,26.7822847000,-80.08032,26.78228
358725613,2082,school,Holland Northlake Day School,-80.0705972000,26.7720073000,-80.0706,26.77201
358725618,2082,school,Edison Russell School,-80.0753196000,26.7878402000,-80.07532,26.78784
358725621,2082,school,First Church of God Nursery/Kindergarden,-80.0578192000,26.7728406000,-80.05782,26.77284
358741017,2082,school,The Imagine School,-80.0986111000,26.7586111000,-80.09861,26.75861
358741530,2082,school,Riviera Beach Charter School,-80.0541610000,26.7863764000,-80.05416,26.78638
358741556,2082,school,Potentials Charter School,-80.0705556000,26.7733333000,-80.07056,26.77333
358741723,2110,hospital,The Jerome Golden Center for Behavioral Health,-80.0673117000,26.7542310000,-80.06731,26.75423
358741795,2082,school,Palm Beach Halfway House,-80.0541730000,26.7863977000,-80.05417,26.7864
358741851,2082,school,Noah's Ark International,-80.0552778000,26.7805556000,-80.05528,26.78056
358742413,2082,school,Inlet Grove Community High School,-80.0925000000,26.7808333000,-80.0925,26.78083
3208571062,2303,cafe,Starbucks,-80.1081102000,26.7830497000,-80.10811,26.78305
3240142954,2303,cafe,Johnny Longboats,-80.0342107000,26.7821482000,-80.03421,26.78215
358715716,2082,school,Whispering Pines Elementary School,-80.1936571000,26.4017427000,-80.19366,26.40174
358725715,2082,school,Kings Private School,-80.1644898000,26.3534111000,-80.16449,26.35341
358725733,2082,school,Willow Tree Private School,-80.1617119000,26.3531333000,-80.16171,26.35313
358741744,2082,school,Olympic Heights Community High School,-80.1863889000,26.3736111000,-80.18639,26.37361
358742041,2082,school,Loggers Run Adult Education Center,-80.2313889000,26.3488889000,-80.23139,26.34889
358742563,2082,school,Hammock Pointe Elementary School,-80.1775099000,26.3387630000,-80.17751,26.33876
367826568,2012,community_centre,Adolf and Rose Levis Jewish Community Center,-80.1969520000,26.3586610000,-80.19695,26.35866
1725626454,2501,supermarket,Publix,-80.2009803000,26.3648858000,-80.20098,26.36489
3448620556,2303,cafe,Starbucks,-80.1670114000,26.3688603000,-80.16701,26.36886
4740770535,2501,supermarket,Publix,-80.1573494000,26.3474774000,-80.15735,26.34748
6046759487,2084,college,,-80.2004724000,26.3319387000,-80.20047,26.33194
6328301735,2303,cafe,Starbucks,-80.2023802000,26.3686025000,-80.20238,26.3686
6952814164,2501,supermarket,Publix,-80.2001551000,26.4076979000,-80.20016,26.4077
6952816326,2303,cafe,Starbucks,-80.2003514000,26.4083392000,-80.20035,26.40834
7465016138,2501,supermarket,Publix,-80.1614240000,26.4555678000,-80.16142,26.45557
358698293,2082,school,Josephs School,-80.0730977000,26.4936835000,-80.0731,26.49368
358715734,2082,school,South Technical Education Center,-80.0672642000,26.4981279000,-80.06726,26.49813
358715748,2082,school,Boynton Beach Elementary School,-80.0630974000,26.5275712000,-80.0631,26.52757
358715764,2082,school,Santaluces Community High School,-80.1042096000,26.5728475000,-80.10421,26.57285
358718979,2082,school,Saint Vincent de Paul Regional Seminary,-80.1258770000,26.5170162000,-80.12588,26.51702
358725644,2082,school,Christian Day School,-80.1636558000,26.5259048000,-80.16366,26.5259
358725646,2082,school,Saint Peters Lutheran School,-80.1422663000,26.5647922000,-80.14227,26.56479
358725650,2082,school,Glades Day School,-80.1370678000,26.5283787000,-80.13707,26.52838
358725684,2082,school,Sunrise Academy/Sunrise School,-80.0808757000,26.5142384000,-80.08088,26.51424
358725689,2082,school,Boynton Christian Academy,-80.0628196000,26.5278490000,-80.06282,26.52785
358725861,2082,school,South Palm Academy,-80.0536526000,26.5795139000,-80.05365,26.57951
358725867,2082,school,New Life Christian Academy,-80.0564305000,26.5750696000,-80.05643,26.57507
358725872,2082,school,Hypoluxo Baptist Day Care,-80.0519859000,26.5611811000,-80.05199,26.56118
358725876,2082,school,Dowling Private School,-80.0592083000,26.5650699000,-80.05921,26.56507
358725878,2082,school,A Little Dude Ranch,-80.0680974000,26.5731252000,-80.0681,26.57313
358725880,2082,school,A Little Dude Ranch,-80.0786533000,26.5717364000,-80.07865,26.57174
358727292,2082,school,Hillwood Private School-Montessori,-80.0478192000,26.5245158000,-80.04782,26.52452
358727297,2082,school,Heritage Christian School,-80.0585594000,26.5218782000,-80.05856,26.52188
358727836,2082,school,Jewish Community Day School Palm Beach County,-80.0789312000,26.5064609000,-80.07893,26.50646
358727838,2082,school,Matlock Academy,-80.0633752000,26.5328488000,-80.06338,26.53285
358727842,2082,school,Saint Juliana School,-80.0805979000,26.5181272000,-80.0806,26.51813
358741272,2082,school,South Technical Adult Education Center,-80.0855122000,26.4964943000,-80.08551,26.49649
358741276,2082,school,South Transition Elementary School,-80.0714913000,26.5293263000,-80.07149,26.52933
358741409,2082,school,Santaluces High Adult Education Center,-80.1047389000,26.5771570000,-80.10474,26.57716
358741440,2082,school,Royal Palm School,-80.1052778000,26.5786111000,-80.10528,26.57861
358741730,2082,school,Odyssey Middle School,-80.1061111000,26.4988889000,-80.10611,26.49889
358742549,2082,school,Guided Path Academy Charter School,-80.0647222000,26.5388889000,-80.06472,26.53889
358742842,2082,school,Ed Venture Charter School,-80.0547222000,26.5713889000,-80.05472,26.57139
358742882,2082,school,Daystar Academy of Excellence Charter School,-80.0644444000,26.5355556000,-80.06444,26.53556
358742885,2082,school,Delray Beach Academy,-80.1000000000,26.5275000000,-80.1,26.5275
358742891,2082,school,Delray Youth Vocational Charter School,-80.0855440000,26.4963711000,-80.08554,26.49637
358742959,2082,school,Crosspointe Elementary School,-80.0894813000,26.4970478000,-80.08948,26.49705
358742962,2082,school,Crystal Lakes Elementary School,-80.1397222000,26.5452778000,-80.13972,26.54528
358743063,2082,school,Chancellor Charter School,-80.0544444000,26.5802778000,-80.05444,26.58028
358743179,2082,school,Boynton Beach Community Adult School,-80.0835898000,26.5413397000,-80.08359,26.54134
1076016497,2501,supermarket,Publix,-80.1852482000,26.5255291000,-80.18525,26.52553
2667771626,2303,cafe,Starbucks,-80.0892124000,26.5705738000,-80.08921,26.57057
2667771637,2501,supermarket,Publix,-80.0875136000,26.5712132000,-80.08751,26.57121
2700383769,2501,supermarket,Winn-Dixie,-80.0570448000,26.5138597000,-80.05704,26.51386
2700383795,2501,supermarket,Publix,-80.0611945000,26.5130898000,-80.06119,26.51309
4368900041,2501,supermarket,Publix,-80.0742455000,26.5514969000,-80.07425,26.5515
4769849123,2501,supermarket,Walmart Supercenter,-80.1145095000,26.5749218000,-80.11451,26.57492
4850958799,2501,supermarket,Publix,-80.1222306000,26.5540707000,-80.12223,26.55407
5021314864,2501,supermarket,Publix,-80.1497097000,26.5145735000,-80.14971,26.51457
5021314865,2501,supermarket,Publix,-80.1497826000,26.5295126000,-80.14978,26.52951
5021336770,2501,supermarket,Publix,-80.1660270000,26.4916864000,-80.16603,26.49169
5091397156,2501,supermarket,Publix,-80.1874318000,26.5688091000,-80.18743,26.56881
5140540241,2501,supermarket,Publix,-80.0920353000,26.5265307000,-80.09204,26.52653
5315596647,2501,supermarket,Walmart Supercenter,-80.0638770000,26.4927940000,-80.06388,26.49279
5315598948,2501,supermarket,Walmart Neighborhood Market,-80.1202028000,26.5292750000,-80.1202,26.52928
5315599534,2501,supermarket,Walmart Neighborhood Market,-80.1212750000,26.4890840000,-80.12128,26.48908
7465095237,2501,supermarket,Publix,-80.1214188000,26.5130247000,-80.12142,26.51302
7495829967,2082,school,Unity School,-80.0742143000,26.4866412000,-80.07421,26.48664
358700389,2082,school,Military Trail School,-80.1117096000,26.7092316000,-80.11171,26.70923
358715857,2082,school,Gulfview Junior High School,-80.1075429000,26.7017319000,-80.10754,26.70173
358718970,2082,school,Northwood Institute-Florida Education Center,-80.1116390000,26.7088951000,-80.11164,26.7089
358725674,2082,school,Summit Christian School,-80.1719892000,26.7081206000,-80.17199,26.70812
358735413,2082,school,Haverhill Baptist Day School,-80.1583777000,26.7020097000,-80.15838,26.70201
358741145,2082,school,Survivors Charter School,-80.0869444000,26.6963889000,-80.08694,26.69639
358741363,2082,school,Seminole Trails Elementary School,-80.1150000000,26.7358333000,-80.115,26.73583
358742404,2082,school,Indian Ridge School,-80.1719444000,26.7077778000,-80.17194,26.70778
358742519,2082,school,Gold Coast Community School,-80.1083588000,26.7037679000,-80.10836,26.70377
358743381,2082,school,Adult Education Center of Palm Beach,-80.1113889000,26.7091667000,-80.11139,26.70917
3231429506,2501,supermarket,ALDI,-80.0894139000,26.7076314000,-80.08941,26.70763
4155450558,2504,mall,Palm Beach Outlet,-80.0870785000,26.7252155000,-80.08708,26.72522
4155450572,2303,cafe,Starbucks,-80.0875694000,26.7219573000,-80.08757,26.72196
5315597730,2501,supermarket,Walmart Supercenter,-80.1090450000,26.6938160000,-80.10904,26.69382
5552221830,2303,cafe,Startbucks,-80.0799157000,26.7058699000,-80.07992,26.70587
6551099785,2012,community_centre,Ahepa Building Mami,-80.1101345000,26.7210681000,-80.11013,26.72107
6551099885,2012,community_centre,Ahepa Building,-80.1101498000,26.7210528000,-80.11015,26.72105
358741294,2082,school,Spanish Academy Charter School,-80.0896838000,26.3863242000,-80.08968,26.38632
358741559,2082,school,Potentials South,-80.0972222000,26.3825000000,-80.09722,26.3825
1929879961,2303,cafe,Starbucks,-80.1016541000,26.3927035000,-80.10165,26.3927
1929879964,2303,cafe,Einstein Brothers Bagels,-80.1013296000,26.3927083000,-80.10133,26.39271
5014632022,2082,school,Torah Academy of Boca Raton,-80.0918480000,26.3867952000,-80.09185,26.3868
358740853,2082,school,Western Pines Community Middle School,-80.2671860000,26.7619829000,-80.26719,26.76198
358742301,2082,school,John D MacArthur Campus,-80.1261111000,26.8863889000,-80.12611,26.88639
358742524,2082,school,Golden Grove Elementary School,-80.2666922000,26.7638126000,-80.26669,26.76381
1548751515,2501,supermarket,,-80.1989614000,26.8102120000,-80.19896,26.81021
358715777,2082,school,Lake Worth Junior High School,-80.0658352000,26.6115380000,-80.06584,26.61154
358725848,2082,school,Kings Academy,-80.0619861000,26.6022908000,-80.06199,26.60229
358725850,2082,school,Holiday Day School,-80.0544859000,26.5995132000,-80.05449,26.59951
358725852,2082,school,Cardinal Newman High School,-80.0553193000,26.6070129000,-80.05532,26.60701
358725863,2082,school,Palm Beach Christian Academy,-80.0572638000,26.5964577000,-80.05726,26.59646
358725870,2082,school,Lake Worth Christian School Society,-80.0678197000,26.5864581000,-80.06782,26.58646
358725884,2082,school,Saint Luke Catholic School,-80.0530969000,26.6209014000,-80.0531,26.6209
358735419,2082,school,Learn and Play Center,-80.0514303000,26.5842359000,-80.05143,26.58424
358741238,2082,school,South Area Middle School of Choice,-80.0669444000,26.5986111000,-80.06694,26.59861
358741249,2082,school,South Grade Elementary School,-80.0553903000,26.6065075000,-80.05539,26.60651
358741805,2082,school,Palm Beach Maritime Academy,-80.0560056000,26.6494896000,-80.05601,26.64949
358741809,2082,school,Palm Beach School for Autism,-80.0636111000,26.5872222000,-80.06361,26.58722
2440895680,2082,school,Academy for Positive Learning,-80.0565169000,26.6301829000,-80.05652,26.63018
4741573348,2501,supermarket,Winn-Dixie,-80.0578406000,26.6467999000,-80.05784,26.6468
4850910897,2501,supermarket,Publix,-80.0671974000,26.5888310000,-80.0672,26.58883
5457223965,2303,cafe,Starbucks,-80.0542472000,26.6159322000,-80.05425,26.61593
358725626,2082,school,First Baptist Christian School,-80.0624124000,26.6764157000,-80.06241,26.67642
358725640,2082,school,Wee Wisdom Montessori/Unity School,-80.0630972000,26.6664553000,-80.0631,26.66646
358742976,2082,school,Conniston Middle Adult Education Center,-80.0614276000,26.6771494000,-80.06143,26.67715
4809707153,2501,supermarket,Publix,-80.0619370000,26.6747314000,-80.06194,26.67473
4877034521,2082,school,Flight Safety International West Palm Beach,-80.1025393000,26.6781273000,-80.10254,26.67813
5797131302,2501,supermarket,Publix,-80.1106386000,26.6644604000,-80.11064,26.66446
358698355,2082,school,Jupiter School,-80.1425435000,26.9458907000,-80.14254,26.94589
358725654,2082,school,Treasure Private School,-80.0944865000,26.9681125000,-80.09449,26.96811
358725660,2082,school,Progressive Learning Center,-80.1169872000,26.9356134000,-80.11699,26.93561
761585083,2501,supermarket,Winn-Dixie,-80.1358910000,26.9359191000,-80.13589,26.93592
761585086,2303,cafe,Starbucks,-80.1385046000,26.9339462000,-80.1385,26.93395
1633377977,2501,supermarket,Publix,-80.1311005000,26.9324975000,-80.1311,26.9325
1633382380,2501,supermarket,Walmart Supercenter,-80.1283861000,26.9327295000,-80.12839,26.93273
4630899286,2501,supermarket,,-80.1924223000,26.9391596000,-80.19242,26.93916
358695961,2082,school,Florida Junior Academy,-80.0942098000,26.3656328000,-80.09421,26.36563
358704931,2082,school,Saint Joan of Arc School,-80.0928210000,26.3461890000,-80.09282,26.34619
358715721,2082,school,Verde Elementary School,-80.1064325000,26.3609107000,-80.10643,26.36091
358725834,2082,school,Alewehi School,-80.0811539000,26.3711880000,-80.08115,26.37119
358742434,2082,school,J C Mitchell Adult Education Center,-80.0897222000,26.3727778000,-80.08972,26.37278
495250616,2501,supermarket,Publix,-80.0875372000,26.3403376000,-80.08754,26.34034
1106733815,2082,school,A.D. Henderson University School,-80.0960532000,26.3739468000,-80.09605,26.37395
3352509892,2303,cafe,Starbucks,-80.1033202000,26.3705066000,-80.10332,26.37051
3353675134,2303,cafe,Starbucks,-80.0849245000,26.3533858000,-80.08492,26.35339
3354428201,2501,supermarket,Publix,-80.0762048000,26.3684969000,-80.0762,26.3685
3355591734,2501,supermarket,Whole Foods Market,-80.1145744000,26.3658345000,-80.11457,26.36583
3581089478,2501,supermarket,Trader Joe's,-80.0870439000,26.3422533000,-80.08704,26.34225
3881708826,2303,cafe,Starbucks,-80.0783217000,26.3663970000,-80.07832,26.3664
4566483061,2083,kindergarten,The Learning Tree Preschool,-80.0931218000,26.3722550000,-80.09312,26.37226
4735339486,2402,motel,Boca Inn,-80.0792149000,26.3665939000,-80.07921,26.36659
6731908584,2303,cafe,The Seed,-80.0892649000,26.3508528000,-80.08926,26.35085
6737589372,2303,cafe,Saquella Cafe,-80.0853026000,26.3463057000,-80.0853,26.34631
7387784198,2501,supermarket,Publix,-80.1119681000,26.3532550000,-80.11197,26.35326
358715785,2082,school,Palm Springs Elementary School,-80.0942092000,26.6281233000,-80.09421,26.62812
358717609,2082,school,Palm Beach Community College,-80.0864313000,26.6128461000,-80.08643,26.61285
358718964,2082,school,Draughons Community College - Palm Beach Center,-80.0814311000,26.6289566000,-80.08143,26.62896
358718966,2082,school,Evangelical Bible Seminary,-80.1219878000,26.6295122000,-80.12199,26.62951
358725575,2082,school,Trinity Lutheran School,-80.0942092000,26.6275678000,-80.09421,26.62757
358725578,2082,school,Saint Vincent Ferrer,-80.0817088000,26.6336786000,-80.08171,26.63368
358725581,2082,school,Gulf Stream,-80.0944870000,26.6434006000,-80.09449,26.6434
358725585,2082,school,Wee Wisdom and Unity Elementary School,-80.0836534000,26.6361786000,-80.08365,26.63618
358725842,2082,school,Trinity Baptist Church School,-80.0764310000,26.5984022000,-80.07643,26.5984
358725845,2082,school,School of Esthetic Experience,-80.0753199000,26.5956245000,-80.07532,26.59562
358725856,2082,school,Bak Academy,-80.1017094000,26.6150682000,-80.10171,26.61507
358725858,2082,school,A Little Dude Ranch,-80.1008761000,26.6081241000,-80.10088,26.60812
358725886,2082,school,Palm Springs Baptist School,-80.0947648000,26.6175681000,-80.09476,26.61757
358742450,2082,school,Jefferson Davis Adult School,-80.1048763000,26.6537468000,-80.10488,26.65375
358743047,2082,school,Central Area Elementary Transition School,-80.0978891000,26.6299518000,-80.09789,26.62995
358749483,2082,school,Palm Beach Community College at Lake Worth Britton G Sayles Social Sciences,-80.0858500000,26.6132380000,-80.08585,26.61324
358749489,2082,school,Palm Beach Community College at Lake Worth Count and Countess de Hoernle Technology Center,-80.0873830000,26.6124800000,-80.08738,26.61248
358749493,2082,school,Palm Beach Community College at Lake Worth Criminal Justice,-80.0853360000,26.6129940000,-80.08534,26.61299
358749503,2082,school,Palm Beach Community College at Lake Worth Financial Aid Building,-80.0851710000,26.6123450000,-80.08517,26.61234
358749506,2082,school,Palm Beach Community College at Lake Worth Fire Academy Building,-80.0829024000,26.6132612000,-80.0829,26.61326
358749512,2082,school,Palm Beach Community College at Lake Worth G Tony Tate Building,-80.0865950000,26.6125390000,-80.0866,26.61254
358749515,2082,school,Palm Beach Community College at Lake Worth General Classrooms A,-80.0858310000,26.6125890000,-80.08583,26.61259
358749519,2082,school,Palm Beach Community College at Lake Worth General Classrooms B,-80.0858310000,26.6128800000,-80.08583,26.61288
358749522,2082,school,Palm Beach Community College at Lake Worth Harold C Manor Library,-80.0870340000,26.6129600000,-80.08703,26.61296
358750171,2082,school,Palm Beach Community College at Lake Worth Paul W Graham Continuing Education Building,-80.0862790000,26.6130150000,-80.08628,26.61302
358750178,2082,school,Palm Beach Community College at Lake Worth Student Activities Center,-80.0854440000,26.6121680000,-80.08544,26.61217
358750187,2084,college,Vocational Laboratory,-80.0871850000,26.6135670000,-80.08719,26.61357
358750189,2082,school,Palm Beach Community College at Lake Worth Watson B Duncan III Theatre,-80.0872220000,26.6118300000,-80.08722,26.61183
921375014,2501,supermarket,Publix,-80.0870590000,26.6386321000,-80.08706,26.63863
3253680161,2501,supermarket,Aldi,-80.0903167000,26.6260935000,-80.09032,26.62609
5315598032,2501,supermarket,Walmart Neighborhood Market,-80.1105642000,26.6503733000,-80.11056,26.65037
5394598487,2501,supermarket,Stop & Shop,-80.0803398000,26.6502347000,-80.08034,26.65023
5842398420,2501,supermarket,Presidente Supermarket #7,-80.0797780000,26.6294877000,-80.07978,26.62949
6143813054,2501,supermarket,Presidente Supermarket #38,-80.0904024000,26.6523960000,-80.0904,26.6524
6157492556,2501,supermarket,Fortune Cookie Oriental Supermarket,-80.0832810000,26.6503902000,-80.08328,26.65039
6804816785,2501,supermarket,WinnDixie,-80.6720503000,26.6751479000,-80.67205,26.67515
6804816786,2501,supermarket,Bowling Green,-80.6709324000,26.6661977000,-80.67093,26.6662
358704771,2082,school,Saint Andrews Preparatory School,-80.1456002000,26.3853543000,-80.1456,26.38535
358725711,2082,school,Boca Raton Academy,-80.1375445000,26.3584109000,-80.13754,26.35841
358725719,2082,school,Palm Beach Christian Schools,-80.1450448000,26.3414670000,-80.14504,26.34147
358725805,2082,school,Creative Learning Montessori School,-80.1456003000,26.3498000000,-80.1456,26.3498
358725825,2082,school,Boca Palm Day School,-80.1397668000,26.3553554000,-80.13977,26.35536
1897465874,2083,kindergarten,Pine Crest School,-80.1351297000,26.3739265000,-80.13513,26.37393
1929814699,2501,supermarket,Publix,-80.1239752000,26.4102340000,-80.12398,26.41023
3622693983,2012,community_centre,The Clubhouse,-80.1206682000,26.3420584000,-80.12067,26.34206
3818782557,2303,cafe,Raw Juce,-80.1265435000,26.3678504000,-80.12654,26.36785
4600210336,2303,cafe,Starbucks,-80.1260027000,26.3677603000,-80.126,26.36776
4600210529,2303,cafe,Starbucks,-80.1240597000,26.3624441000,-80.12406,26.36244
4747084366,2501,supermarket,Publix Greenwise,-80.1358233000,26.3621696000,-80.13582,26.36217
4944690837,2501,supermarket,Publix,-80.1470966000,26.3955572000,-80.1471,26.39556
5113448278,2303,cafe,Starbucks,-80.1543765000,26.3486715000,-80.15438,26.34867
5356848746,2303,cafe,Starbucks,-80.1212367000,26.4085144000,-80.12124,26.40851
5593036521,2501,supermarket,Winn-Dixie,-80.1555120000,26.3529604000,-80.15551,26.35296
358715731,2014,arts_centre,Delray Beach Center for the Arts,-80.0727220000,26.4629574000,-80.07272,26.46296
358741693,2110,hospital,Pinecrest Rehabilitation Hospital,-80.1282152000,26.4364686000,-80.12822,26.43647
358741756,2082,school,Orchard View Community Elementary School,-80.1041667000,26.4350000000,-80.10417,26.435
358742526,2082,school,Good Schools Leadership Academy,-80.0775000000,26.4625000000,-80.0775,26.4625
358742703,2110,hospital,Fair Oaks Pavilion,-80.1294114000,26.4363545000,-80.12941,26.43635
358743013,2082,school,Corebridge Educational Academy,-80.0744444000,26.4208333000,-80.07444,26.42083
358743158,2082,school,Carver Middle School,-80.1141667000,26.4633333000,-80.11417,26.46333
761246018,2501,supermarket,Publix,-80.1189870000,26.4597313000,-80.11899,26.45973
2287114102,2303,cafe,Starbucks,-80.0707954000,26.4618108000,-80.0708,26.46181
3098736998,2501,supermarket,Trader Joe's,-80.0702715000,26.4392684000,-80.07027,26.43927
3253614877,2501,supermarket,Aldi,-80.1211545000,26.4407928000,-80.12115,26.44079
3484640474,2012,community_centre,Delray Beach Community Center,-80.0747201000,26.4630010000,-80.07472,26.463
5021324367,2501,supermarket,Publix,-80.1455842000,26.4712550000,-80.14558,26.47126
5315599530,2501,supermarket,Walmart Neighborhood Market,-80.0716085000,26.4258162000,-80.07161,26.42582
6042430685,2501,supermarket,Publix,-80.1451029000,26.4377645000,-80.1451,26.43776
7360448901,2303,cafe,Coffee District,-80.0710544000,26.4681873000,-80.07105,26.46819
7387784203,2501,supermarket,Publix,-80.0762397000,26.4156679000,-80.07624,26.41567
7390178055,2082,school,Trinity Lutheran School,-80.0742314000,26.4698769000,-80.07423,26.46988
7495895385,2082,school,Mt. Olive Christian School,-80.0776073000,26.4631307000,-80.07761,26.46313
7667473771,2501,supermarket,Presidente Supermarket,-80.0915502000,26.4401312000,-80.09155,26.44013
7667661734,2303,cafe,Starbucks,-80.0781228000,26.4402120000,-80.07812,26.44021
7667661903,2501,supermarket,Publix,-80.0705773000,26.4438021000,-80.07058,26.4438
7671061635,2303,cafe,Tealicious Teahouse & Catering,-80.1212822000,26.4591090000,-80.12128,26.45911
7671061637,2303,cafe,Cafe Provence,-80.1204669000,26.4593450000,-80.12047,26.45934
7671608851,2501,supermarket,Mario's Market,-80.1209529000,26.4569699000,-80.12095,26.45697
7671626617,2501,supermarket,Winn-Dixie,-80.1251832000,26.4591820000,-80.12518,26.45918
7671664471,2501,supermarket,MIA Supermarket,-80.0919717000,26.4457764000,-80.09197,26.44578
358751863,2005,post_office,Pahokee Post Office,-80.6680660000,26.8224550000,-80.66807,26.82246
367819998,2002,fire_station,Pahokee Fire Department Station 72,-80.6658103000,26.8238870000,-80.66581,26.82389
367820015,2002,fire_station,South Bay Fire Department Station 74,-80.7132862000,26.6614353000,-80.71329,26.66144
367820017,2002,fire_station,Belle Glade Fire Department Station 73,-80.6701141000,26.6813060000,-80.67011,26.68131
367823473,2007,library,Palm Beach County Library System Belle Glade Branch,-80.6677690000,26.6816320000,-80.66777,26.68163
367823475,2007,library,Glades Correctional Institution Library,-80.6742220000,26.7173920000,-80.67422,26.71739
367823835,2007,library,Palm Beach County Library System Clarence E Anthony Branch Library,-80.7135250000,26.6612060000,-80.71352,26.66121
367824321,2007,library,Palm Beach County Library System Loula V York Branch Library,-80.6699510000,26.8215220000,-80.66995,26.82152
367825199,2001,police,Belle Glade Police Department,-80.6805810000,26.6813918000,-80.68058,26.68139
367825273,2001,police,Pahokee Police Department,-80.6657493000,26.8238108000,-80.66575,26.82381
367825333,2001,police,Belle Glade Police Chief,-80.6683045000,26.6859341000,-80.6683,26.68593
367825360,2001,police,Palm Beach County Sheriff's Office District 5,-80.6653286000,26.7241582000,-80.66533,26.72416
367825423,2001,police,Pahokee Community Police,-80.6661895000,26.8192501000,-80.66619,26.81925
367825439,2001,police,Palm Beach County Sheriff's Office,-80.6708400000,26.6866100000,-80.67084,26.68661
367826211,2099,public_building,South Bay Public Safety Department,-80.7133931000,26.6612623000,-80.71339,26.66126
3877459658,2002,fire_station,Palm Beach 74 Fire Station,-80.7201206000,26.6730836000,-80.72012,26.67308
5583795321,2005,post_office,Post Office,-80.6315691000,26.8633607000,-80.63157,26.86336
367819733,2002,fire_station,Fire Station Number 21,-80.2688889000,26.7063889000,-80.26889,26.70639
367820027,2002,fire_station,Royal Palm Beach Fire Department Station 28,-80.2289124000,26.7040440000,-80.22891,26.70404
367820156,2002,fire_station,Loxahatchee Fire Department Station 21,-80.2693604000,26.7057078000,-80.26936,26.70571
367823797,2007,library,Palm Beach County Library System Royal Palm Beach Branch,-80.2318641000,26.7056480000,-80.23186,26.70565
367824759,2007,library,Palm Beach County Public Library - Okeechobee Boulevard Branch,-80.2200601000,26.7067565000,-80.22006,26.70676
367825289,2001,police,Palm Beach County Sheriff's Office District 9 Village of Royal Palm Beach,-80.2271999000,26.7055594000,-80.2272,26.70556
2617895106,2005,post_office,Royal Palm Beach Branch,-80.2279190000,26.7047046000,-80.22792,26.7047
6804896185,2007,library,Palm Beach County Library,-80.2326099000,26.7053985000,-80.23261,26.7054
358750193,2005,post_office,Greenacres Post Office,-80.1457320000,26.6143220000,-80.14573,26.61432
367820106,2002,fire_station,Benoist Farms Fire Department Station 34,-80.1747445000,26.6756252000,-80.17474,26.67563
367820110,2002,fire_station,Palm Beach County Fire Rescue Station 32,-80.1565413000,26.6169225000,-80.15654,26.61692
367824066,2007,library,Palm Beach County Library System Greenacres Branch Library,-80.1459580000,26.6226310000,-80.14596,26.62263
367825243,2001,police,Palm Beach County Sheriff's Office,-80.1314898000,26.6742837000,-80.13149,26.67428
367826195,2099,public_building,Greenacres Department of Protective Services Station 1,-80.1465055000,26.6314860000,-80.14651,26.63149
367826244,2099,public_building,Greenacres Department of Public Safety,-80.1465173000,26.6313363000,-80.14652,26.63134
367820127,2002,fire_station,Wellington Fire Department Station 20,-80.2828927000,26.6680782000,-80.28289,26.66808
367819743,2002,fire_station,Fire Station Number 28,-80.2302778000,26.6900000000,-80.23028,26.69
367820090,2002,fire_station,Palm Beach County Fire Rescue Station 29,-80.2033183000,26.6920486000,-80.20332,26.69205
367820095,2002,fire_station,Wellington Fire Department Station 25,-80.2356591000,26.6657870000,-80.23566,26.66579
367823838,2007,library,PBCLS Wellington Branch Library,-80.2255470000,26.6523360000,-80.22555,26.65234
1266354922,2008,town_hall,Village of Wellington Government Offices,-80.2377425000,26.6551381000,-80.23774,26.65514
367820091,2002,fire_station,Palm Beach County Fire Rescue Station 27,-80.2615641000,26.6303859000,-80.26156,26.63039
1975188304,2002,fire_station,Station #30,-80.1975974000,26.6324875000,-80.1976,26.63249
358752189,2005,post_office,Palm Beach Gardens Mall Post Office,-80.0855170000,26.8485870000,-80.08552,26.84859
367819662,2002,fire_station,Fire Station Number 63,-80.1175000000,26.8091667000,-80.1175,26.80917
367819768,2002,fire_station,Lake Park Fire Department,-80.0741456000,26.7986773000,-80.07415,26.79868
367819771,2002,fire_station,North Palm Beach Fire Department Station 67,-80.0561467000,26.8122538000,-80.05615,26.81225
367819982,2002,fire_station,Palm Beach Gardens Fire / Rescue Station 61,-80.1043980000,26.8313976000,-80.1044,26.8314
367819989,2002,fire_station,Palm Beach Gardens Fire Department Station 65,-80.0946276000,26.8646946000,-80.09463,26.86469
367820115,2002,fire_station,Riviera Beach Fire / Rescue Station 3,-80.0339147000,26.7987966000,-80.03391,26.7988
367820130,2002,fire_station,Lake Park Fire Department Station 68,-80.0729396000,26.7984894000,-80.07294,26.79849
367820133,2002,fire_station,Richard Road Fire Department,-80.0813381000,26.8139108000,-80.08134,26.81391
367820134,2002,fire_station,Jupiter Fire Department Station 16,-80.1034808000,26.9002014000,-80.10348,26.9002
367820138,2002,fire_station,Juno Beach Fire / Rescue Station 15,-80.0545964000,26.8658894000,-80.0546,26.86589
367820148,2002,fire_station,Palm Beach Gardens Fire / Rescue Station 62,-80.0830962000,26.8391836000,-80.0831,26.83918
367820153,2002,fire_station,Palm Beach Gardens Fire / Rescue Station 63,-80.1159455000,26.8097644000,-80.11595,26.80976
367824160,2007,library,Library Cooperative of the Palm Beaches Lake Park Public Library,-80.0631510000,26.7988840000,-80.06315,26.79888
367824214,2007,library,North Palm Beach Public Library,-80.0576850000,26.8105910000,-80.05769,26.81059
367824311,2007,library,Palm Beach Community College Eissey Campus Library Resource Center,-80.0834718000,26.8419642000,-80.08347,26.84196
367825050,2001,police,Lake Park Police Department,-80.0643487000,26.7989772000,-80.06435,26.79898
367825189,2001,police,Palm Beach Gardens Police Department,-80.1046588000,26.8341317000,-80.10466,26.83413
367825195,2001,police,Juno Beach Police Department,-80.0521810000,26.8717716000,-80.05218,26.87177
367825359,2001,police,Lake Park Sheriff's Department,-80.0631632000,26.7981657000,-80.06316,26.79817
367826241,2001,police,North Palm Beach Police Department,-80.0564503000,26.8126082000,-80.05645,26.81261
1307896224,2008,town_hall,Village of North Palm Beach City Hall,-80.0569990000,26.8107591000,-80.057,26.81076
367820003,2002,fire_station,Palm Beach Fire Prevention,-80.0382345000,26.7252659000,-80.03823,26.72527
367820014,2002,fire_station,Palm Beach Fire Department Main,-80.0382211000,26.7253225000,-80.03822,26.72532
367820354,2002,fire_station,West Palm Beach Fire / Rescue Station 4,-80.0618453000,26.6983620000,-80.06185,26.69836
367824732,2007,library,Historical Society of Palm Beach County Library,-80.0428188000,26.7142314000,-80.04282,26.71423
367826243,2099,public_building,Palm Beach County Criminal Justice Commission,-80.0521291000,26.7156644000,-80.05213,26.71566
4673991801,2007,library,E C Blomeyer Library - Palm Beach Atlantic College,-80.0497575000,26.7048385000,-80.04976,26.70484
6196774677,2009,courthouse,15th Judicial Circuit of Florida,-80.0542664000,26.7154436000,-80.05427,26.71544
367819765,2002,fire_station,Riviera Beach Fire / Rescue Station 1,-80.0660231000,26.7832914000,-80.06602,26.78329
367819889,2002,fire_station,Palm Beach Shores Volunteer Fire Department,-80.0369241000,26.7786124000,-80.03692,26.77861
367820118,2002,fire_station,Riviera Beach Fire / Rescue Station 4,-80.1075767000,26.7868739000,-80.10758,26.78687
367820121,2002,fire_station,Riviera Beach Fire / Rescue Station 2,-80.0820185000,26.7808206000,-80.08202,26.78082
367820351,2002,fire_station,West Palm Beach Fire / Rescue Station 6,-80.1004437000,26.7491822000,-80.10044,26.74918
367820352,2002,fire_station,West Palm Beach Fire / Rescue Station 3,-80.0554215000,26.7561754000,-80.05542,26.75618
367824740,2007,library,Riviera Beach Public Library,-80.0789309000,26.7808960000,-80.07893,26.7809
367825032,2001,police,Riviera Beach Police Department,-80.0647989000,26.7842527000,-80.0648,26.78425
367825196,2001,police,Palm Beach Shores Police Department,-80.0369211000,26.7785357000,-80.03692,26.77854
367825219,2001,police,Mangonia Park Town Police Department,-80.0815478000,26.7545594000,-80.08155,26.75456
7299273287,2001,police,Sheriff's Office Dock,-80.0434373000,26.7850566000,-80.04344,26.78506
358748619,2005,post_office,West Delray Beach Post Office,-80.2073730000,26.4525290000,-80.20737,26.45253
367819646,2002,fire_station,Fire Station Number 57,-80.1916667000,26.3547222000,-80.19167,26.35472
367819664,2002,fire_station,Fire Station Number 59,-80.1630556000,26.3794444000,-80.16306,26.37944
367820030,2002,fire_station,Logger's Run Fire Department Station 58,-80.2390195000,26.3637816000,-80.23902,26.36378
367820036,2002,fire_station,West Boca Fire Department Station 51,-80.2038670000,26.3387909000,-80.20387,26.33879
367820039,2002,fire_station,Palm Beach County Fire Rescue Station 54,-80.2052199000,26.3953382000,-80.20522,26.39534
367820041,2002,fire_station,Century Village Fire Department Station 53,-80.1860989000,26.3812292000,-80.1861,26.38123
367820137,2002,fire_station,Palm Beach County Fire Rescue Station 42,-80.1619154000,26.4647796000,-80.16192,26.46478
367823504,2007,library,Donald B Gordon Memorial Library,-80.1562497000,26.4288041000,-80.15625,26.4288
367825341,2001,police,Palm Beach County Sheriff's Office District 7,-80.2048006000,26.4014162000,-80.2048,26.40142
367826227,2099,public_building,Boca Headquarters Station 57,-80.1872802000,26.3526820000,-80.18728,26.35268
4067643591,2001,police,,-80.2052930000,26.4097180000,-80.20529,26.40972
5871797691,2007,library,West Boca Branch Library,-80.2049467000,26.3984968000,-80.20495,26.3985
6328300634,2005,post_office,The UPS Store,-80.2067802000,26.3715266000,-80.20678,26.37153
358746481,2005,post_office,Jog Road Post Office,-80.1495040000,26.5510060000,-80.1495,26.55101
358746484,2005,post_office,Village of Golf Post Office,-80.1033060000,26.5043560000,-80.10331,26.50436
367819762,2002,fire_station,Fire Station Number 46,-80.1460546000,26.5641463000,-80.14605,26.56415
367819772,2002,fire_station,Boynton Beach Fire / Rescue Station 1,-80.0635009000,26.5285730000,-80.0635,26.52857
367819928,2002,fire_station,Boynton Beach Fire / Rescue Station 2,-80.0926613000,26.5135428000,-80.09266,26.51354
367819934,2002,fire_station,Boynton Beach Fire / Rescue Station 3,-80.0915398000,26.5567810000,-80.09154,26.55678
367820054,2002,fire_station,Lantana Fire Department Station 37,-80.0554590000,26.5764248000,-80.05546,26.57642
367820074,2002,fire_station,Boynton Beach Fire Department Station 46,-80.1469535000,26.5207674000,-80.14695,26.52077
367820075,2002,fire_station,West Boynton Fire Department Station 47,-80.1692538000,26.5267322000,-80.16925,26.52673
367820103,2002,fire_station,Indian Springs Fire Department Station 41,-80.1248418000,26.5125946000,-80.12484,26.51259
367820111,2002,fire_station,Boynton Beach Fire / Rescue Station 4,-80.0599077000,26.5116015000,-80.05991,26.5116
367823463,2007,library,Palm Beach County Library System West Boynton Branch Library,-80.1484060000,26.5365500000,-80.14841,26.53655
367823464,2007,library,Saint Vincent de Paul Regional Seminary Library,-80.1254980000,26.5195420000,-80.1255,26.51954
367825217,2001,police,Palm Beach County Sheriff's Office Substation,-80.1222007000,26.5315139000,-80.1222,26.53151
367825221,2001,police,Lantana Police Department,-80.0554761000,26.5764569000,-80.05548,26.57646
367825233,2001,police,Boynton Beach Police Department - Administrative,-80.0633309000,26.5285710000,-80.06333,26.52857
367825296,2001,police,Gulf Stream Police Department,-80.0541747000,26.5004428000,-80.05417,26.50044
367826216,2099,public_building,Ocean Ridge Public Safety Department,-80.0487899000,26.5293505000,-80.04879,26.52935
5331341592,2007,library,Boynton Beach Public Library,-80.0638388000,26.5260238000,-80.06384,26.52602
6273530316,2005,post_office,United States Post Office,-80.0929465000,26.5267132000,-80.09295,26.52671
367819739,2002,fire_station,Fire Station Number 23,-80.1268348000,26.7083196000,-80.12683,26.70832
367819753,2002,fire_station,Fire Station Number 34,-80.1744444000,26.6847222000,-80.17444,26.68472
367820035,2002,fire_station,Palm Beach International Airport Fire Department Station 81,-80.0921787000,26.6848291000,-80.09218,26.68483
367820083,2002,fire_station,Palm Beach County Fire Rescue Station 24 (West Gate),-80.0950176000,26.7002562000,-80.09502,26.70026
367820085,2002,fire_station,Palm Beach County Fire Rescue Station 23 (Century Village),-80.1269971000,26.7084253000,-80.127,26.70843
367820349,2002,fire_station,West Palm Beach Fire / Rescue Station 5,-80.0809247000,26.7189962000,-80.08092,26.719
367823818,2007,library,Palm Beach County Library System Dr and Mrs Peter C Cook Library,-80.1115580000,26.7154710000,-80.11156,26.71547
367825061,2001,police,Florida Highway Patrol,-80.1373444000,26.7086077000,-80.13734,26.70861
367825247,2001,police,Palm Beach County Sheriff's Office District 2 Airport,-80.0812423000,26.6884283000,-80.08124,26.68843
1307847844,2002,fire_station,West Palm Beach Fire Rescue Station 7,-80.1695881000,26.7091113000,-80.16959,26.70911
3549355867,2005,post_office,US Postal and Printing,-80.1500424000,26.7098429000,-80.15004,26.70984
367820119,2002,fire_station,Delray Beach Fire / Rescue Station 6,-80.0651608000,26.4106154000,-80.06516,26.41062
367825387,2001,police,Highland Beach Police Department,-80.0654186000,26.4101410000,-80.06542,26.41014
3247748469,2007,library,Spanish River Library,-80.1142737000,26.3877838000,-80.11427,26.38778
4397495091,2005,post_office,Postal Sweets,-80.0807177000,26.3868349000,-80.08072,26.38683
367819730,2002,fire_station,Fire Station Number 17,-80.1369407000,26.7980920000,-80.13694,26.79809
367820086,2002,fire_station,West Palm Beach Fire / Rescue Station 17,-80.1368357000,26.7981255000,-80.13684,26.79813
367820094,2002,fire_station,Pam Beach County Fire Rescue Station 26,-80.2560367000,26.7670213000,-80.25604,26.76702
367820129,2002,fire_station,Palm Beach County Fire Rescue Station 22,-80.3063910000,26.7555215000,-80.30639,26.75552
367820152,2002,fire_station,Palm Beach Gardens Fire / Rescue Station 64,-80.1349762000,26.8426062000,-80.13498,26.84261
367825355,2001,police,Palm Beach County Sheriff's Office District 3,-80.1372999000,26.7974828000,-80.1373,26.79748
367819904,2002,fire_station,Palm Beach Fire Department South,-80.0386762000,26.6393768000,-80.03868,26.63938
367819906,2002,fire_station,Lake Worth Beach Fire Department Station 91,-80.0586840000,26.6169505000,-80.05868,26.61695
367820028,2002,fire_station,South Palm Beach Fire Department (closed),-80.0396601000,26.5926276000,-80.03966,26.59263
367820052,2002,fire_station,Manalapan Fire Department Station 38,-80.0389805000,26.5799246000,-80.03898,26.57992
367824702,2007,library,Lake Worth Public Library,-80.0539303000,26.6350675000,-80.05393,26.63507
367825012,2001,police,Florida Highway Patrol Lantana District,-80.0651204000,26.5875107000,-80.06512,26.58751
367825222,2001,police,Manalapan Police Department,-80.0383887000,26.5797212000,-80.03839,26.57972
367825300,2001,police,Lake Worth Police Department,-80.0588675000,26.6169600000,-80.05887,26.61696
367825405,2001,police,Palm Beach Police Department - Beach Patrol,-80.0386633000,26.6395933000,-80.03866,26.63959
367826238,2099,public_building,South Palm Beach Public Safety Department,-80.0396712000,26.5925032000,-80.03967,26.5925
5973687685,2007,library,tiny free library Charter #44713,-80.0552886000,26.6005005000,-80.05529,26.6005
5973687696,2007,library,Tiny free Library Charter #48239,-80.0532595000,26.6020112000,-80.05326,26.60201
367820033,2002,fire_station,Trauma Hawk Fire Department,-80.1078623000,26.6785178000,-80.10786,26.67852
367820109,2002,fire_station,Cotton Bay Fire Department Station 33,-80.1039977000,26.6650586000,-80.104,26.66506
367824709,2007,library,Lake Park Public Library,-80.1094874000,26.6614555000,-80.10949,26.66146
367825392,2001,police,Palm Beach County Sheriff's Office,-80.0928097000,26.6716361000,-80.09281,26.67164
5797131303,2005,post_office,United State Postal Service,-80.1107193000,26.6651110000,-80.11072,26.66511
358749806,2005,post_office,Jupiter Post Office,-80.1014650000,26.9214360000,-80.10146,26.92144
367819871,2002,fire_station,Jupiter Fire Department Station 14,-80.1922970000,26.9234543000,-80.1923,26.92345
367819908,2002,fire_station,Tequesta Fire Department,-80.0937172000,26.9590413000,-80.09372,26.95904
367820114,2002,fire_station,Jupiter Fire Department Station 11,-80.0955981000,26.9624466000,-80.0956,26.96245
367820136,2002,fire_station,Jupiter Fire Department Station 18,-80.0832692000,26.9398972000,-80.08327,26.9399
367824153,2007,library,Palm Beach County Library System Jupiter Branch,-80.1012650000,26.9271270000,-80.10126,26.92713
367824758,2007,library,Palm Beach County Public Library - North-County Branch,-80.0969866000,26.9628349000,-80.09699,26.96283
367825038,2001,police,Jupiter Police Department,-80.1023418000,26.9328555000,-80.10234,26.93286
367825385,2001,police,Jupiter Inlet Colony Police Department,-80.0757848000,26.9521338000,-80.07578,26.95213
367825398,2001,police,Tequesta Police Department,-80.0935436000,26.9591616000,-80.09354,26.95916
761585193,2002,fire_station,Fire Station 19,-80.1345274000,26.9366339000,-80.13453,26.93663
6193954170,2001,police,,-80.0935436000,26.9591616000,-80.09354,26.95916
358746410,2005,post_office,Downtown Boca Raton Post Office,-80.0842470000,26.3520380000,-80.08425,26.35204
367819774,2002,fire_station,Boca Raton Fire / Rescue Station 8,-80.0938028000,26.3296454000,-80.0938,26.32965
367819913,2002,fire_station,Boca Raton Fire / Rescue Station 2,-80.1052453000,26.3508566000,-80.10525,26.35086
367819915,2002,fire_station,Boca Raton Fire / Rescue Station 3,-80.0700612000,26.3495714000,-80.07006,26.34957
367819968,2002,fire_station,Boca Raton Fire / Rescue Station 1,-80.0832995000,26.3612724000,-80.0833,26.36127
367823466,2007,library,Boca Raton Regional Hospital Medical Staff Library,-80.1021380000,26.3584410000,-80.10214,26.35844
367825357,2001,police,Boca Raton Police Annex,-80.0721067000,26.3508384000,-80.07211,26.35084
6737598334,2005,post_office,The UPS Store,-80.0866254000,26.3393223000,-80.08663,26.33932
358750196,2005,post_office,Lake Worth Post Office,-80.1077850000,26.6190030000,-80.10779,26.619
367819759,2002,fire_station,Fire Station Number 36,-80.1141667000,26.6375000000,-80.11417,26.6375
367820044,2002,fire_station,Palm Beach County Fire Rescue Station 43,-80.1142440000,26.5918779000,-80.11424,26.59188
367820049,2002,fire_station,PBCFR Station-35,-80.0826836000,26.5881864000,-80.08268,26.58819
367820105,2002,fire_station,Cresthaven Fire Department Station 36,-80.1141519000,26.6372331000,-80.11415,26.63723
367823805,2007,library,Library Cooperative of the Palm Beaches Palm Springs Public Library,-80.0959830000,26.6408020000,-80.09598,26.6408
367825034,2001,police,Palm Beach County School District Police Department,-80.0933387000,26.6495165000,-80.09334,26.64952
367825055,2001,police,Palm Beach County Sheriff's Office District 9 Parks Enforcement,-80.0853523000,26.6078070000,-80.08535,26.60781
367825339,2001,police,Atlantis Police Department,-80.0971942000,26.5952334000,-80.09719,26.59523
367826226,2099,public_building,Greenacres Department of Protective Services Station 2,-80.1226105000,26.6032324000,-80.12261,26.60323
358746408,2005,post_office,Boca Raton Post Office,-80.1202150000,26.3776850000,-80.12022,26.37768
358746414,2005,post_office,Woodland Post Office,-80.1201800000,26.3776610000,-80.12018,26.37766
367819644,2002,fire_station,Fire Station Number 55,-80.1502778000,26.3552778000,-80.15028,26.35528
367819777,2002,fire_station,Boca Raton Fire / Rescue Station 6,-80.1227681000,26.4085117000,-80.12277,26.40851
367819912,2002,fire_station,Boca Raton Fire / Rescue Station 5,-80.1301449000,26.3686855000,-80.13014,26.36869
367820031,2002,fire_station,Boca Del Mar Fire Department Station 55,-80.1499721000,26.3559288000,-80.14997,26.35593
358748617,2005,post_office,Delray Post Office,-80.1217130000,26.4651440000,-80.12171,26.46514
367819822,2002,fire_station,Delray Beach Fire / Rescue Station 1,-80.0786369000,26.4621322000,-80.07864,26.46213
367819917,2002,fire_station,Delray Beach Fire / Rescue Station 2,-80.0595753000,26.4623971000,-80.05958,26.4624
367820038,2002,fire_station,Pheasant Walk Fire Department Station 52,-80.1163675000,26.4156462000,-80.11637,26.41565
367820072,2002,fire_station,Kings Point Fire Department 45,-80.1462567000,26.4470162000,-80.14626,26.44702
367820123,2002,fire_station,Delray Beach Fire / Rescue Station 4,-80.1139550000,26.4733570000,-80.11396,26.47336
367824728,2007,library,Delray Beach Public Library,-80.0705977000,26.4545184000,-80.0706,26.45452
367824761,2007,library,Palm Beach County Public Library - Del-Trail Branch,-80.1233771000,26.4434078000,-80.12338,26.44341
367825368,2001,police,Police Community Services,-80.0870437000,26.4488499000,-80.08704,26.44885
367825416,2001,police,Palm Beach County Sheriff's Office District 4,-80.0926228000,26.4551324000,-80.09262,26.45513
367825427,2001,police,Delray Beach Police Department,-80.0765555000,26.4610904000,-80.07656,26.46109
367826144,2099,public_building,South County Civic Center,-80.1460620000,26.4285590000,-80.14606,26.42856
3484640473,2008,town_hall,Delray Beach City Hall,-80.0746795000,26.4638162000,-80.07468,26.46382
7667661885,2005,post_office,The UPS Store,-80.0730344000,26.4403536000,-80.07303,26.44035
7667981943,2005,post_office,United States Post Office,-80.0694507000,26.4401993000,-80.06945,26.4402
7671337562,2005,post_office,The UPS Store,-80.1216668000,26.4405870000,-80.12167,26.44059
7671608857,2005,post_office,United States Post Office,-80.1217731000,26.4560400000,-80.12177,26.45604
7671626661,2005,post_office,The UPS Store,-80.1247791000,26.4599404000,-80.12478,26.45994
