osm_id,code,fclass,name,point_x,point_y,lon,lat
598629586,2014,arts_centre,A Little Room For Art,-82.7371461000,27.6881431000,-82.73715,27.68814
3369114582,2303,cafe,Snack Bar,-82.7357108000,27.6168198000,-82.73571,27.61682
358716028,2082,school,Oldsmar Elementary School,-82.6716279000,28.0368931000,-82.67163,28.03689
358758256,2082,school,Forest Lakes Elementary School,-82.6677974000,28.0455541000,-82.6678,28.04555
2025374195,2501,supermarket,Walmart Supercenter,-82.6735790000,28.0435870000,-82.67358,28.04359
5242043638,2082,school,A Grade Ahead,-82.6593155000,28.0365727000,-82.65932,28.03657
5242046053,2303,cafe,Aki Sushi Bar,-82.6600504000,28.0365964000,-82.66005,28.0366
5242046238,2303,cafe,Zapata's,-82.6598439000,28.0365206000,-82.65984,28.03652
5806934753,2303,cafe,Ice Cream Theory,-82.6540712000,28.0350107000,-82.65407,28.03501
358693754,2082,school,Clearview Avenue School,-82.6909331000,27.8072481000,-82.69093,27.80725
358695821,2082,school,John M. Sexton Elementary School,-82.6595430000,27.8216920000,-82.65954,27.82169
358697150,2082,school,Harris School,-82.6598212000,27.8141924000,-82.65982,27.81419
358698922,2082,school,Lealman Avenue School,-82.6873790000,27.8256190000,-82.68738,27.82562
358716124,2082,school,Fairmont Park Elementary School,-82.6902614000,27.7648335000,-82.69026,27.76483
358728368,2082,school,Transfiguration Parish School,-82.6887108000,27.7830824000,-82.68871,27.78308
358728372,2082,school,Thorn Howard Academy,-82.6887108000,27.7839156000,-82.68871,27.78392
358728379,2082,school,Sunshore Academy,-82.6637102000,27.8128036000,-82.66371,27.8128
358728391,2082,school,Shepherd Academy,-82.6692659000,27.7711383000,-82.66927,27.77114
358728445,2082,school,Northside Christian Schools,-82.6817662000,27.8211366000,-82.68177,27.82114
358728473,2082,school,Immaculate Conception Day Care/Kindergarten,-82.6914887000,27.7614164000,-82.69149,27.76142
358728501,2082,school,Gingerbread School Northeast,-82.6638243000,27.7712700000,-82.66382,27.77127
358728503,2082,school,Friendship Day School,-82.6667383000,27.7849637000,-82.66674,27.78496
1238875986,2082,school,New Heights Elementary,-82.6823864000,27.8072023000,-82.68239,27.8072
1770081206,2303,cafe,Cafe 54,-82.6800390000,27.8270870000,-82.68004,27.82709
1770089396,2501,supermarket,Cho-Lon Oriental Market,-82.6800045000,27.8263465000,-82.68,27.82635
1772616814,2082,school,St. Petersburg Christian School,-82.6615369000,27.8289822000,-82.66154,27.82898
1779339451,2501,supermarket,A&J Food Mart,-82.6833430000,27.8214020000,-82.68334,27.8214
1969350225,2501,supermarket,Quick Corner,-82.6716304000,27.8062463000,-82.67163,27.80625
1998658251,2501,supermarket,United Oriental Foods,-82.6834500000,27.8286100000,-82.68345,27.82861
2009770148,2501,supermarket,Nina's Mini Market,-82.6700010000,27.8215560000,-82.67,27.82156
2049191030,2303,cafe,The Hideaway Cafe,-82.6575720000,27.7708770000,-82.65757,27.77088
2311590920,2303,cafe,Mayster's Cafe,-82.6666440000,27.7708240000,-82.66664,27.77082
3228386438,2303,cafe,Craftsman House,-82.6737184000,27.7712674000,-82.67372,27.77127
5134097884,2501,supermarket,Aldi Food Market,-82.6788373000,27.7870107000,-82.67884,27.78701
6210956688,2303,cafe,C A Cafe,-82.6627282000,27.7670133000,-82.66273,27.76701
6608977777,2303,cafe,The Bikery,-82.6636919000,27.7699767000,-82.66369,27.76998
6786000215,2303,cafe,Squeeze Juice Works,-82.6629179000,27.7704859000,-82.66292,27.77049
358694779,2082,school,Disston Junior High School,-82.7020444000,27.7603053000,-82.70204,27.76031
358695733,2082,school,Farragut Academy,-82.7450801000,27.7784459000,-82.74508,27.77845
358695950,2082,school,Florida Christian School,-82.7287117000,27.7622496000,-82.72871,27.76225
358696026,2082,school,Forest Hills School,-82.7016827000,27.7639384000,-82.70168,27.76394
358701135,2082,school,Mount Vernon School,-82.6962110000,27.7850267000,-82.69621,27.78503
358702849,2082,school,Pasadena School,-82.7373230000,27.7716937000,-82.73732,27.77169
358705075,2082,school,Saint Jude School,-82.7126003000,27.7786380000,-82.7126,27.77864
358708204,2082,school,Tyrone Middle School,-82.7253950000,27.7928030000,-82.7254,27.7928
358716133,2082,school,Tyrone Elementary School,-82.7271329000,27.7938061000,-82.72713,27.79381
358728360,2082,school,Virginia Stein Schools,-82.7470455000,27.8128034000,-82.74705,27.8128
358728398,2082,school,Saint Petersburg Christian School,-82.7220449000,27.7808602000,-82.72204,27.78086
358728415,2082,school,Pinellas Marine Institute,-82.7395453000,27.7669717000,-82.73955,27.76697
358728419,2082,school,Pinellas County Jewish Day School,-82.7137114000,27.8016928000,-82.71371,27.80169
358728436,2082,school,Our Saviour Lutheran School,-82.7123225000,27.7800268000,-82.71232,27.78003
358728451,2082,school,Most Holy Name of Jesus School,-82.7053779000,27.7586387000,-82.70538,27.75864
358728456,2082,school,Lutheran High School of Pinellas County,-82.7123225000,27.7580832000,-82.71232,27.75808
358728484,2082,school,Heritage Private School,-82.7084335000,27.8036371000,-82.70843,27.80364
358728498,2082,school,Gingerbread Wellington School,-82.7042002000,27.7712414000,-82.7042,27.77124
358728515,2082,school,Faith Preschool,-82.6998222000,27.7586387000,-82.69982,27.75864
358758243,2082,school,Disston Gifted Center,-82.7023472000,27.7600374000,-82.70235,27.76004
358758247,2082,school,Dixie Hollins Adult Education Center,-82.7223000000,27.8162000000,-82.7223,27.8162
358758267,2082,school,Hamilton Disston School,-82.7031000000,27.7603000000,-82.7031,27.7603
358758349,2082,school,Pasadena Fundamental Elementary School,-82.7371000000,27.7716000000,-82.7371,27.7716
358758388,2082,school,Saint Petersburg Collegiate High School,-82.7327143000,27.7793089000,-82.73271,27.77931
598634322,2014,arts_centre,Suntan Craftsmen Gallery,-82.7369946000,27.7085477000,-82.73699,27.70855
841433559,2501,supermarket,Publix,-82.7389473000,27.7224298000,-82.73895,27.72243
1940810973,2504,mall,Tyrone Square Mall,-82.7336358000,27.7937518000,-82.73364,27.79375
1998795267,2082,school,Our Lady of Good Hope Preschool,-82.7083940000,27.8288390000,-82.70839,27.82884
2030161093,2303,cafe,Starbucks,-82.7280970000,27.7711760000,-82.7281,27.77118
2030693715,2501,supermarket,Publix,-82.6988228000,27.8042516000,-82.69882,27.80425
2030693728,2501,supermarket,Save-A-Lot,-82.7007706000,27.7804152000,-82.70077,27.78042
2030817853,2501,supermarket,Earth Origins Market,-82.7293372000,27.7713669000,-82.72934,27.77137
2573559763,2303,cafe,Starbucks,-82.7330710000,27.7936700000,-82.73307,27.79367
3393488652,2303,cafe,The Cupcake Spot,-82.7134919000,27.8210958000,-82.71349,27.8211
5315598895,2501,supermarket,Walmart Neighborhood Market,-82.7342840000,27.7572296000,-82.73428,27.75723
6027776885,2303,cafe,La Casa de Pane,-82.7501381000,27.7395686000,-82.75014,27.73957
6034594285,2303,cafe,Café Soleil French Bakery & Deli,-82.7393837000,27.7233912000,-82.73938,27.72339
6056193023,2303,cafe,Low Tide Kava,-82.7073375000,27.7409199000,-82.70734,27.74092
6611255924,2303,cafe,SumitrA Espresso Lounge+,-82.7076718000,27.7411607000,-82.70767,27.74116
7745277764,2501,supermarket,Publix,-82.7517716000,27.8226786000,-82.75177,27.82268
358716155,2082,school,Lynch Elementary School,-82.6592257000,27.8376886000,-82.65923,27.83769
358758394,2082,school,Sawgrass Lake Elementary School,-82.6592000000,27.8431000000,-82.6592,27.8431
1720445835,2110,hospital,St. Anthony's Outpatient Center,-82.6667775000,27.8929456000,-82.66678,27.89295
1720446553,2303,cafe,Nature's Table Cafe,-82.6670503000,27.8927458000,-82.66705,27.89275
1992844710,2082,school,Sawgrass Lake Elementary School,-82.6602194000,27.8455771000,-82.66022,27.84558
358716062,2082,school,Oak Grove Middle School,-82.7470455000,27.9469655000,-82.74705,27.94697
1766537091,2303,cafe,Starbucks,-82.7296393000,27.9403794000,-82.72964,27.94038
1771573375,2501,supermarket,Mediterranean Food Market,-82.7308618000,27.9394396000,-82.73086,27.93944
1775461291,2402,motel,Econo Inn,-82.7309620000,27.9426130000,-82.73096,27.94261
1946253295,2303,cafe,Internet Cafe,-82.7292974000,27.9433558000,-82.7293,27.94336
4770349978,2303,cafe,Cafeteria,-82.7238949000,27.9299249000,-82.72389,27.92992
5564727245,2501,supermarket,Walgreens,-82.7454353000,27.9415494000,-82.74544,27.94155
358702655,2082,school,Palm Harbor Junior High School,-82.7603793000,28.0711275000,-82.76038,28.07113
358716044,2082,school,Palm Harbor Elementary School,-82.7604333000,28.0709383000,-82.76043,28.07094
358716048,2082,school,Ozona Elementary School,-82.7734352000,28.0719608000,-82.77344,28.07196
358716181,2082,school,Tarpon Springs Fundamental School,-82.7517678000,28.1391807000,-82.75177,28.13918
358728431,2082,school,Palm Harbour Montessori School,-82.7567680000,28.0808495000,-82.75677,28.08085
358758343,2082,school,Palm Harbor Community School,-82.7466000000,28.0983000000,-82.7466,28.0983
367820490,2012,community_centre,Tarpon Springs Public Safety Facility,-82.7449433000,28.1427595000,-82.74494,28.14276
1566547591,2501,supermarket,Winn Dixie,-82.7560805000,28.1363672000,-82.75608,28.13637
1905784107,2303,cafe,Starbucks,-82.7412873000,28.1436164000,-82.74129,28.14362
1985957924,2303,cafe,Starbucks,-82.6957940000,28.0495675000,-82.69579,28.04957
2003178357,2501,supermarket,Publix,-82.7357710000,28.0500900000,-82.73577,28.05009
2003203281,2303,cafe,Starbucks,-82.7376940000,28.0499320000,-82.73769,28.04993
2439599585,2501,supermarket,Publix,-82.7372770000,28.0751350000,-82.73728,28.07514
2502048096,2501,supermarket,Publix,-82.6929424000,28.1023064000,-82.69294,28.10231
2502971914,2303,cafe,Starbucks,-82.6917350000,28.0996430000,-82.69173,28.09964
3013651087,2501,supermarket,Walmart Supercenter,-82.7435188000,28.1472522000,-82.74352,28.14725
3013651089,2501,supermarket,Publix,-82.7427785000,28.1437330000,-82.74278,28.14373
3730609941,2501,supermarket,ALDI,-82.6781677000,28.0455287000,-82.67817,28.04553
4454938437,2110,hospital,Ultimate Image Cosmetic Medical Center,-82.7390449000,28.0429661000,-82.73904,28.04297
4681006881,2501,supermarket,Earth Origins Market,-82.7360300000,28.0507446000,-82.73603,28.05074
5093675903,2501,supermarket,Publix,-82.7785358000,28.0500296000,-82.77854,28.05003
5315598311,2501,supermarket,Walmart Neighborhood Market,-82.7062003000,28.0600454000,-82.7062,28.06005
5373670568,2501,supermarket,Publix,-82.7716103000,28.0948754000,-82.77161,28.09488
5950855560,2303,cafe,Indian Cuisine,-82.6777556000,28.0424547000,-82.67776,28.04245
6870886952,2303,cafe,Starbucks,-82.7412752000,28.1471114000,-82.74128,28.14711
6886550701,2012,community_centre,Tarpon Springs Recreation Center,-82.7471677000,28.1426546000,-82.74717,28.14265
7291625561,2303,cafe,Food Services (FS),-82.7418786000,28.1212953000,-82.74188,28.1213
358693925,2082,school,Comprehensive Junior High School,-82.7864911000,27.9764086000,-82.78649,27.97641
358694470,2082,school,Curtis School,-82.7912135000,27.9805751000,-82.79121,27.98058
358698502,2082,school,Kings Highway School,-82.7778798000,27.9839084000,-82.77788,27.98391
358701935,2082,school,North Ward School,-82.7995470000,27.9752974000,-82.79955,27.9753
358702579,2082,school,Our Lady of Lourdes School,-82.7812132000,28.0294623000,-82.78121,28.02946
358702719,2082,school,Palmetto School,-82.7862133000,27.9783530000,-82.78621,27.97835
358704821,2082,school,Saint Cecelias School,-82.7799004000,27.9619339000,-82.7799,27.96193
358705634,2082,school,San Jose Elementary School,-82.7828201000,28.0295221000,-82.78282,28.02952
358706610,2082,school,Skycrest School,-82.7603792000,27.9664091000,-82.76038,27.96641
358716036,2082,school,Dunedin Elementary School,-82.7845466000,28.0039076000,-82.78455,28.00391
358716098,2082,school,Clearwater Comp Middle School,-82.7859355000,27.9761308000,-82.78594,27.97613
358728382,2082,school,True School,-82.7776020000,27.9794641000,-82.7776,27.97946
358728385,2082,school,Sunset Point Baptist School,-82.7834354000,27.9919637000,-82.78344,27.99196
358728425,2082,school,Patris Private School of Pinellas County,-82.7868242000,27.9694956000,-82.78682,27.9695
358728441,2082,school,Open Door School,-82.7531567000,28.0141853000,-82.75316,28.01419
358728463,2082,school,Lakeside Christian School,-82.7678795000,27.9905749000,-82.76788,27.99057
358728482,2082,school,Highland Park School,-82.7839910000,27.9975190000,-82.78399,27.99752
358735511,2082,school,Play Parc School-Upper Pinellas Association for Retarded Children,-82.7942690000,27.9641867000,-82.79427,27.96419
358758233,2082,school,Clearwater Intermediate School,-82.7864000000,27.9759000000,-82.7864,27.9759
358758238,2082,school,Curtis Fundamental Elementary School,-82.7860950000,27.9778810000,-82.7861,27.97788
1766960641,2501,supermarket,Winn-Dixie,-82.7643175000,28.0215569000,-82.76432,28.02156
1792501383,2012,community_centre,"Sunrise Lodge, Knights of Pythas",-82.7880466000,28.0113091000,-82.78805,28.01131
1816948199,2402,motel,Amberlee Motel,-82.7894831000,28.0170203000,-82.78948,28.01702
1950174600,2303,cafe,Olde Bay Cafe,-82.7923070000,28.0123750000,-82.79231,28.01238
2025033026,2402,motel,Riviera Motel & Suites,-82.8278510000,27.9744490000,-82.82785,27.97445
2274257047,2083,kindergarten,Sunset Point Preschool,-82.7783580000,27.9895680000,-82.77836,27.98957
2403811861,2110,hospital,"Comprehensive Spine Institute 1988 Gulf To Bay Blvd., Clearwater, FL 33765",-82.7552756000,27.9607495000,-82.75528,27.96075
3783209949,2303,cafe,9th Bar Espresso,-82.7890296000,28.0148522000,-82.78903,28.01485
4821706189,2501,supermarket,Save A Lot,-82.7766509000,28.0175672000,-82.77665,28.01757
4833082621,2303,cafe,Tin Can Café,-82.7957955000,27.9624652000,-82.7958,27.96247
4973954343,2303,cafe,Starbucks,-82.8001524000,27.9654779000,-82.80015,27.96548
4973954346,2303,cafe,Grindhouse Coffee,-82.8000612000,27.9657409000,-82.80006,27.96574
5315597964,2501,supermarket,Walmart Neighborhood Market,-82.7736996000,27.9870445000,-82.7737,27.98704
5394744251,2501,supermarket,Dunedin Fresh Market,-82.7758016000,28.0044249000,-82.7758,28.00442
6096712935,2303,cafe,,-82.7827124000,28.0153326000,-82.78271,28.01533
6190562734,2501,supermarket,Island Market,-82.8255973000,27.9670306000,-82.8256,27.96703
6597995829,2303,cafe,Starbucks,-82.8276363000,27.9788022000,-82.82764,27.9788
6774948764,2303,cafe,Restoration Café,-82.8000636000,27.9667347000,-82.80006,27.96673
358716070,2082,school,Paul B Stephens Exceptional Student Education Center,-82.7159336000,27.9872418000,-82.71593,27.98724
358716075,2082,school,Safety Harbor Elementary School,-82.6925998000,27.9947416000,-82.6926,27.99474
358736904,2082,school,Florida Sheriff Youth Ranch Learning Center,-82.7067667000,27.9689092000,-82.70677,27.96891
1768134819,2501,supermarket,Publix,-82.7114835000,28.0130264000,-82.71148,28.01303
1768177587,2303,cafe,Starbucks,-82.7094140000,28.0141109000,-82.70941,28.01411
1768178102,2303,cafe,Starbucks,-82.6890649000,27.9906547000,-82.68906,27.99065
2503968709,2501,supermarket,Wild Birds Unlimited Nature Shop,-82.7073471000,28.0117749000,-82.70735,28.01177
6092923206,2012,community_centre,Tampa Bay Lodge No. 252,-82.6910946000,27.9906273000,-82.69109,27.99063
6092923214,2303,cafe,The Sandwich on Main,-82.6902830000,27.9906791000,-82.69028,27.99068
358728353,2082,school,Wee Care Center,-82.6373148000,27.8280884000,-82.63731,27.82809
358728461,2082,school,Liberty Baptist Christian School,-82.6386709000,27.8173474000,-82.63867,27.81735
358728494,2082,school,Grace Lutheran Church School,-82.6539878000,27.8155813000,-82.65399,27.81558
1723545094,2303,cafe,Starbucks,-82.6389060000,27.8174370000,-82.63891,27.81744
1767702036,2402,motel,Kentucky Motel,-82.6390210000,27.8109580000,-82.63902,27.81096
1768671725,2501,supermarket,Winn-Dixie,-82.6487840000,27.8298740000,-82.64878,27.82987
1990455400,2083,kindergarten,Shining Starz Preschool,-82.6544120000,27.8213570000,-82.65441,27.82136
2118189182,2083,kindergarten,St Pete Prep Learning Center,-82.6348810000,27.8274310000,-82.63488,27.82743
925824351,2501,supermarket,Jannus Market,-82.6358310000,27.7719190000,-82.63583,27.77192
1758562285,2303,cafe,Kahwa South,-82.6358600000,27.7692800000,-82.63586,27.76928
1760242797,2303,cafe,Starbucks,-82.6342050000,27.7674880000,-82.6342,27.76749
1948668845,2303,cafe,The Campus Grind,-82.6344608000,27.7633277000,-82.63446,27.76333
1949774040,2084,college,Saint Petersburg College Downtown Campus,-82.6368618000,27.7732826000,-82.63686,27.77328
1993115667,2303,cafe,Starbucks,-82.6353100000,27.7722930000,-82.63531,27.77229
1993262794,2303,cafe,Kahwa Coffee North,-82.6353661000,27.7774162000,-82.63537,27.77742
2356259106,2303,cafe,Cafe Gala,-82.6312500000,27.7661460000,-82.63125,27.76615
3216784662,2303,cafe,Common Grounds,-82.6387069000,27.7765517000,-82.63871,27.77655
358716052,2082,school,Highpoint Elementary School,-82.7145921000,27.9094478000,-82.71459,27.90945
358716056,2082,school,Pinellas Vocational Technical Institute,-82.7192670000,27.9116889000,-82.71927,27.91169
358718890,2082,school,Florida Beacon Bible College,-82.7349127000,27.9004663000,-82.73491,27.90047
358758258,2082,school,Frontier Elementary School,-82.7368000000,27.9101000000,-82.7368,27.9101
1766480494,2303,cafe,Starbucks,-82.6884400000,27.8934510000,-82.68844,27.89345
1766512743,2082,school,National Aviation Academy,-82.7213550000,27.8947960000,-82.72136,27.8948
1769566034,2501,supermarket,Publix,-82.7350221000,27.9180931000,-82.73502,27.91809
1990941290,2083,kindergarten,Camelot School,-82.7317070000,27.8943970000,-82.73171,27.8944
3019549855,2084,college,EpiCenter at St. Petersburg College,-82.7114670000,27.8974361000,-82.71147,27.89744
3450108679,2402,motel,Quality Inn and Suites,-82.6833673000,27.8952512000,-82.68337,27.89525
358717588,2082,school,Richard L Sanders School,-82.7009333000,27.8436357000,-82.70093,27.84364
358728412,2082,school,Sacred Heart School,-82.6891078000,27.8438846000,-82.68911,27.84388
358728422,2082,school,Pinellas County Independent Private School,-82.7039890000,27.8600241000,-82.70399,27.86002
358728453,2082,school,Morning Star School of Pinellas Park,-82.7109335000,27.8447468000,-82.71093,27.84475
358728491,2082,school,Greenacres Country Day School,-82.7137114000,27.8558576000,-82.71371,27.85586
358728496,2082,school,Grace Christian School,-82.7109335000,27.8391915000,-82.71093,27.83919
358728513,2082,school,First Baptist Christian School,-82.7028551000,27.8407297000,-82.70286,27.84073
358758334,2082,school,Oak Park School,-82.7294000000,27.8495000000,-82.7294,27.8495
1739224381,2501,supermarket,Aldi,-82.6926320000,27.8543620000,-82.69263,27.85436
1766954809,2303,cafe,Starbucks,-82.6835370000,27.8380790000,-82.68354,27.83808
1766960200,2501,supermarket,Save-A-Lot,-82.7069920000,27.8739920000,-82.70699,27.87399
2848729357,2501,supermarket,Dong A 2 Market,-82.7003740000,27.8358074000,-82.70037,27.83581
2850630473,2083,kindergarten,VPK Center,-82.7153081000,27.8395795000,-82.71531,27.83958
2850801318,2082,school,"Moss Speech, Language, & Reading Center",-82.7194237000,27.8395423000,-82.71942,27.83954
2850801323,2501,supermarket,Sugar Loaf Emporium,-82.7188549000,27.8395544000,-82.71885,27.83955
3730622944,2501,supermarket,Aldi,-82.7291950000,27.8332530000,-82.7292,27.83325
6632349886,2501,supermarket,MD Oriental Market,-82.7014114000,27.8407419000,-82.70141,27.84074
358716161,2082,school,Pinellas Park Elementary School,-82.6260955000,27.8709156000,-82.6261,27.87092
358728479,2082,school,Holy Family School,-82.6391644000,27.8404755000,-82.63916,27.84048
618867146,2303,cafe,Pipo's Cuban Cafe,-82.6384073000,27.8631434000,-82.63841,27.86314
1305961917,2501,supermarket,Publix,-82.6437820000,27.8454410000,-82.64378,27.84544
1768263929,2501,supermarket,Publix,-82.6462155000,27.8670123000,-82.64622,27.86701
1770439071,2402,motel,King's Rest Motel,-82.6390623000,27.8395527000,-82.63906,27.83955
1775568482,2402,motel,Sahara Motel,-82.6195524000,27.8687917000,-82.61955,27.86879
1817838321,2501,supermarket,Winn Dixie,-82.6404030000,27.8732006000,-82.6404,27.8732
1948422750,2303,cafe,Starbucks,-82.6383570000,27.8527900000,-82.63836,27.85279
2536487263,2402,motel,Siesta Inn,-82.6382720000,27.8371150000,-82.63827,27.83712
358696559,2082,school,Glenoak School,-82.6502624000,27.7506833000,-82.65026,27.75068
358698825,2082,school,Lakeview School,-82.6672919000,27.7479530000,-82.66729,27.74795
358706933,2082,school,Southside Junior High School,-82.6484992000,27.7534396000,-82.6485,27.75344
358716106,2082,school,Perkins Elementary School,-82.6652038000,27.7530574000,-82.6652,27.75306
358728465,2082,school,Lad 'n' Lass School,-82.6470432000,27.7558612000,-82.64704,27.75586
358758411,2082,school,Southside Fundamental Middle School,-82.6481609000,27.7534410000,-82.64816,27.75344
846530832,2501,supermarket,Publix,-82.6738521000,27.7182970000,-82.67385,27.7183
1940791869,2504,mall,Lakeview Shopping Center,-82.6802988000,27.7475108000,-82.6803,27.74751
3086566537,2083,kindergarten,,-82.6645991000,27.7114566000,-82.6646,27.71146
3730628771,2501,supermarket,Aldi,-82.6783911000,27.7419386000,-82.67839,27.74194
4167693588,2501,supermarket,Save-A-Lot,-82.6388871000,27.7290020000,-82.63889,27.729
5315597764,2501,supermarket,Walmart Supercenter,-82.6823310000,27.7362520000,-82.68233,27.73625
5590442278,2501,supermarket,Taste of the Islands Market,-82.6804896000,27.7481094000,-82.68049,27.74811
6587912732,2501,supermarket,Publix,-82.6801041000,27.7206884000,-82.6801,27.72069
1950189666,2012,community_centre,Casa Community Center,-82.6488690000,27.7722730000,-82.64887,27.77227
1950193058,2303,cafe,Cafe 1001 and Creative Catering Company,-82.6482830000,27.7722110000,-82.64828,27.77221
2266095400,2303,cafe,Intermezzo,-82.6503826000,27.7713132000,-82.65038,27.77131
3834878590,2303,cafe,Maxiland Bakery,-82.6499556000,27.7722017000,-82.64996,27.7722
6032365810,2303,cafe,Gypsy Souls,-82.6464579000,27.7779384000,-82.64646,27.77794
6736574895,2082,school,MYcroSchool,-82.6457397000,27.7678467000,-82.64574,27.76785
6798018801,2501,supermarket,Bodhi Basics,-82.6468497000,27.7742364000,-82.64685,27.77424
6958010669,2303,cafe,Banyan Cafe and Catering,-82.6465040000,27.7790325000,-82.6465,27.77903
358701920,2082,school,North Shore School,-82.6323206000,27.8036373000,-82.63232,27.80364
358705295,2082,school,Saint Paul School,-82.6512957000,27.7898819000,-82.6513,27.78988
358728395,2082,school,Saint Raphael School,-82.6178759000,27.7947487000,-82.61788,27.79475
358729121,2082,school,Leas Learning Lair,-82.6345429000,27.7905822000,-82.63454,27.79058
566437304,2501,supermarket,Publix,-82.6352988000,27.8063451000,-82.6353,27.80635
2025705196,2501,supermarket,Rollin Oats Market,-82.6470163000,27.7984008000,-82.64702,27.7984
2127053946,2501,supermarket,Fitlife Foods,-82.6382410000,27.7998230000,-82.63824,27.79982
2391817620,2501,supermarket,GFS Marketplace,-82.6377190000,27.8007010000,-82.63772,27.8007
3834877679,2402,motel,Rusty Anchor Motel,-82.6380758000,27.7932623000,-82.63808,27.79326
6119640626,2012,community_centre,Selama Grotto,-82.6552136000,27.7995104000,-82.65521,27.79951
7142994667,2303,cafe,Neighborhood Joe,-82.6465330000,27.7960019000,-82.64653,27.796
358716066,2082,school,Eisenhower Elementary School,-82.7206560000,27.9694647000,-82.72066,27.96946
1767234768,2501,supermarket,The Fresh Market,-82.7287447000,28.0087437000,-82.72874,28.00874
1810130262,2402,motel,Gulf Way Inn,-82.7431068000,27.9599830000,-82.74311,27.95998
1844303567,2501,supermarket,Don Pancho Villa Market,-82.7290702000,27.9685269000,-82.72907,27.96853
1958621676,2303,cafe,Beefeater Cafe,-82.7302268000,28.0040503000,-82.73023,28.00405
2127934326,2402,motel,Howard Johnson,-82.7391110000,28.0265810000,-82.73911,28.02658
3133024186,2501,supermarket,Walmart Neighborhood Market,-82.7505051000,28.0204737000,-82.75051,28.02047
5315597538,2501,supermarket,Walmart Neighborhood Market,-82.7482950000,27.9592610000,-82.7483,27.95926
5460434167,2501,supermarket,Whole Foods Market,-82.7358511000,28.0171153000,-82.73585,28.01712
6055325511,2303,cafe,Starbucks,-82.7339714000,28.0144237000,-82.73397,28.01442
358704564,2082,school,Roser Park School,-82.6411334000,27.7616554000,-82.64113,27.76166
358716116,2082,school,Mirror Lake/Tomlinson Adult Education Center,-82.6429890000,27.7756900000,-82.64299,27.77569
358757956,2110,hospital,Women’s Care Center,-82.6421030000,27.7637580000,-82.6421,27.76376
597705528,2014,arts_centre,Florida Craftsmen Gallery,-82.6403870000,27.7713577000,-82.64039,27.77136
1963720171,2303,cafe,Banyan Cafe,-82.6440850000,27.7713820000,-82.64408,27.77138
1999989523,2012,community_centre,Pinellas County Supervisor of Elections,-82.6405060000,27.7724850000,-82.64051,27.77248
2445308377,2303,cafe,Central Coffee Shoppe,-82.6408528000,27.7709061000,-82.64085,27.77091
3401336966,2303,cafe,Brew D Licious,-82.6429857000,27.7713528000,-82.64299,27.77135
5039558778,2501,supermarket,Publix,-82.6442718000,27.7705198000,-82.64427,27.77052
7217130202,2303,cafe,Rawk Star Cafe,-82.6443652000,27.7709444000,-82.64437,27.77094
358691352,2082,school,Bauder School,-82.7923246000,27.9147440000,-82.79232,27.91474
358693454,2082,school,Central School,-82.7851022000,27.9180773000,-82.7851,27.91808
358694189,2082,school,Cottingham School,-82.8451039000,27.9050217000,-82.8451,27.90502
358698316,2082,school,Junior Academy,-82.7784353000,27.9489096000,-82.77844,27.94891
358703647,2082,school,Ponce de Leon School,-82.7844341000,27.9343811000,-82.78443,27.93438
358705273,2082,school,Saint Patricks School,-82.8112140000,27.9033554000,-82.81121,27.90336
358716080,2082,school,Walsingham Elementary School,-82.7644693000,27.8812161000,-82.76447,27.88122
358716093,2082,school,Largo Central Elementary School,-82.7845465000,27.9180773000,-82.78455,27.91808
358728388,2082,school,Suncoast Christian School,-82.7845466000,27.9419654000,-82.78455,27.94197
358728401,2082,school,Saint Paul School,-82.7748241000,27.9258549000,-82.77482,27.92585
358728448,2082,school,New Creation Academy,-82.8012137000,27.8864116000,-82.80121,27.88641
358728458,2082,school,Lord Lutheran School,-82.7539902000,27.9489098000,-82.75399,27.94891
358728468,2082,school,Kreative Kids Learning Center,-82.8276034000,27.8739118000,-82.8276,27.87391
358728470,2082,school,Jefferson Academy,-82.7831576000,27.9294658000,-82.78316,27.92947
358728510,2082,school,First Lutheran School,-82.7692246000,27.9428034000,-82.76922,27.9428
358758205,2082,school,Boley Juvenile Justice School,-82.7920040000,27.9140010000,-82.792,27.914
358758210,2082,school,Britt Halfway House,-82.7919810000,27.9141110000,-82.79198,27.91411
358758340,2082,school,Pace Center for Girls Pinellas County,-82.7923000000,27.9141000000,-82.7923,27.9141
358758364,2082,school,Pinellas Preparatory Academy,-82.7927000000,27.9172000000,-82.7927,27.9172
961785880,2501,supermarket,Publix,-82.8337457000,27.8821384000,-82.83375,27.88214
1037522158,2012,community_centre,Highland Recreation Center,-82.7724383000,27.9214729000,-82.77244,27.92147
1693560520,2303,cafe,Wildflower Cafe,-82.7993941000,27.9439541000,-82.79939,27.94395
1990607720,2083,kindergarten,KinderCare,-82.7529470000,27.9168450000,-82.75295,27.91684
2020524316,2303,cafe,Coffee Bean,-82.7840340000,27.8908350000,-82.78403,27.89084
2027063270,2501,supermarket,Save-A-Lot,-82.7958250000,27.9171910000,-82.79582,27.91719
2160392565,2303,cafe,Starbucks,-82.7618150000,27.9160930000,-82.76182,27.91609
2250858660,2012,community_centre,Largo Cultural Center,-82.7845300000,27.9143880000,-82.78453,27.91439
2698548342,2501,supermarket,Rainbow Food,-82.7755467000,27.9515731000,-82.77555,27.95157
3730637085,2501,supermarket,Aldi,-82.7893538000,27.9273765000,-82.78935,27.92738
3730656970,2501,supermarket,Walmart Supercenter,-82.7858843000,27.9264846000,-82.78588,27.92648
4922272021,2303,cafe,Maggie Mae's,-82.8295902000,27.9523940000,-82.82959,27.95239
5315596665,2501,supermarket,Walmart Neighborhood Market,-82.8300000000,27.8818000000,-82.83,27.8818
5495351755,2303,cafe,Starbucks,-82.7809954000,27.8937697000,-82.781,27.89377
6264819570,2402,motel,Gulf Towers,-82.8509998000,27.8829819000,-82.851,27.88298
6608966915,2303,cafe,Belleair Coffee Company,-82.8170238000,27.9179990000,-82.81702,27.918
6739150467,2303,cafe,The Coffee Mill,-82.8321171000,27.8837243000,-82.83212,27.88372
7850206929,2501,supermarket,Publix,-82.7601692000,27.8718490000,-82.76017,27.87185
7850206932,2501,supermarket,Walmart Neighborhood Market,-82.7642287000,27.8930394000,-82.76423,27.89304
358698457,2082,school,Keswick Christian School,-82.7789910000,27.8225250000,-82.77899,27.82252
358728375,2082,school,Testing and Remediation Center/Rivendell Academy,-82.7970469000,27.8475241000,-82.79705,27.84752
358728488,2082,school,Gulf Coast Christian School,-82.7526012000,27.8005816000,-82.7526,27.80058
2031067331,2501,supermarket,Publix,-82.7675505000,27.7662082000,-82.76755,27.76621
2318912384,2303,cafe,Starbucks,-82.7545040000,27.8161270000,-82.7545,27.81613
2847021231,2082,school,Campbell's Tutorial Reading,-82.7875022000,27.8453220000,-82.7875,27.84532
3104244388,2303,cafe,Nina's Cafe On the Beach,-82.7596208000,27.7561867000,-82.75962,27.75619
3237357702,2303,cafe,Addicted to the Bean,-82.7827387000,27.7852023000,-82.78274,27.7852
4972388305,2402,motel,Surf Song,-82.7847496000,27.7854946000,-82.78475,27.78549
5238144515,2303,cafe,Sweet Brewnette,-82.7927106000,27.7944261000,-82.79271,27.79443
5315601402,2501,supermarket,Walmart Supercenter,-82.7813795000,27.8158476000,-82.78138,27.81585
5523861946,2501,supermarket,Winn-Dixie,-82.8025800000,27.8034637000,-82.80258,27.80346
6601658162,2303,cafe,Starbucks,-82.7808908000,27.8153201000,-82.78089,27.81532
6611271677,2084,college,St. Petersburg College - Seminole Campus,-82.7985227000,27.8575459000,-82.79852,27.85755
7049512955,2082,school,Osceola Fundamental High School,-82.7731335000,27.8604622000,-82.77313,27.86046
7155208885,2402,motel,Parafise Inn,-82.7588295000,27.7711874000,-82.75883,27.77119
7711695626,2303,cafe,Cafe Cure,-82.7623976000,27.8389715000,-82.7624,27.83897
358728508,2082,school,First Presbyterian Day School,-82.6262518000,27.7851178000,-82.62625,27.78512
2089362541,2303,cafe,Starbucks,-82.6387400000,27.7813520000,-82.63874,27.78135
