osm_id,code,fclass,name,point_x,point_y,lon,lat
358694356,2082,school,Crestview School,-80.2383820000,25.9453708000,-80.23838,25.94537
358695350,2082,school,Emeth School,-80.2036589000,25.8873172000,-80.20366,25.88732
358697589,2082,school,Holy Cross School,-80.1854687000,25.8992398000,-80.18547,25.89924
358697592,2082,school,Holy Family School,-80.1764357000,25.9098163000,-80.17644,25.90982
358701395,2082,school,Nathan Young School,-80.2406045000,25.9039834000,-80.2406,25.90398
358703665,2082,school,Popiel School,-80.1778247000,25.9012055000,-80.17782,25.90121
358704698,2082,school,Sabal Palm School,-80.1861582000,25.9328711000,-80.18616,25.93287
358704912,2082,school,Saint James School,-80.2092145000,25.8953725000,-80.20921,25.89537
358705079,2082,school,Saint Lawrence School,-80.1567126000,25.9512037000,-80.15671,25.9512
358706132,2082,school,Shady Oak School,-80.1961586000,25.8845396000,-80.19616,25.88454
358707750,2082,school,Thomas Jefferson Junior High School,-80.2089368000,25.9100942000,-80.20894,25.91009
358708535,2082,school,Visitation School,-80.1983807000,25.9492595000,-80.19838,25.94926
358708986,2082,school,Westview Junior High School,-80.2322709000,25.8909284000,-80.23227,25.89093
358708989,2082,school,Westview School,-80.2347710000,25.8903728000,-80.23477,25.89037
358712112,2082,school,Bay Harbor Elementary School,-80.1324233000,25.8845918000,-80.13242,25.88459
358712120,2082,school,Opa-Locka Elementary School,-80.2481047000,25.9042612000,-80.2481,25.90426
358718944,2082,school,Southeastern College of Osteopathic Medicine,-80.1669908000,25.9317600000,-80.16699,25.93176
358727676,2082,school,Terrys Day Nursery,-80.1844914000,25.9367599000,-80.18449,25.93676
358727684,2082,school,Pan American Institute,-80.1828248000,25.9192605000,-80.18282,25.91926
358727687,2082,school,Miami Aerospace Academy,-80.1753245000,25.9423151000,-80.17532,25.94232
358727695,2082,school,Gingerbread House Day Nursery,-80.1819914000,25.9156495000,-80.18199,25.91565
358727720,2082,school,Von Wedel-Gardiner School,-80.1853250000,25.8842618000,-80.18533,25.88426
358727727,2082,school,North Miami Early Childhood School,-80.1719911000,25.8948169000,-80.17199,25.89482
358727738,2082,school,The Little Sailors School,-80.1667130000,25.9314822000,-80.16671,25.93148
358727925,2082,school,Norland Methodist Preschool,-80.2197703000,25.9481485000,-80.21977,25.94815
358727930,2082,school,Bethany Lutheran Kindergarten,-80.2128257000,25.9445375000,-80.21283,25.94454
358728033,2082,school,Busy Bees Day Care Center,-80.1986587000,25.8881506000,-80.19866,25.88815
358728039,2082,school,Michaels Kindergarten,-80.2194927000,25.8870396000,-80.21949,25.88704
358728058,2082,school,Work and Play Day Care Center,-80.2139370000,25.8914838000,-80.21394,25.89148
358728678,2082,school,Trinity Christian Academy,-80.2219928000,25.8892617000,-80.22199,25.88926
358728688,2082,school,Temple Beth Moshe School,-80.1844915000,25.8934281000,-80.18449,25.89343
358728848,2082,school,Donalds Day Care,-80.1706021000,25.9156495000,-80.1706,25.91565
358729541,2082,school,Rosenblum Synagogue School,-80.1556015000,25.9503704000,-80.1556,25.95037
358729579,2082,school,Opa-Locka School,-80.2483825000,25.9042612000,-80.24838,25.90426
358729608,2082,school,Miami Technical College,-80.2111591000,25.9095387000,-80.21116,25.90954
358729700,2082,school,Bay Harbor School,-80.1321809000,25.8852605000,-80.13218,25.88526
358729717,2082,school,Miami Christian College,-80.2369933000,25.8964837000,-80.23699,25.89648
358731296,2082,school,Carol City Junior High School,-80.2622716000,25.9456487000,-80.26227,25.94565
358731390,2082,school,Learning School,-80.2497714000,25.9142609000,-80.24977,25.91426
358731407,2082,school,Jeans Kiddie Kollege,-80.2636606000,25.9267605000,-80.26366,25.92676
358731473,2082,school,Marian Center School,-80.2583838000,25.9167549000,-80.25838,25.91675
358735468,2082,school,Beacon Hill Center,-80.2531049000,25.8987058000,-80.2531,25.89871
358740751,2082,school,Westview Elementary Head Start,-80.2338889000,25.8902778000,-80.23389,25.89028
358740881,2082,school,Vankara School,-80.2538889000,25.8950000000,-80.25389,25.895
358741185,2082,school,Temple Beth Moshe Preschool,-80.1541667000,25.8908333000,-80.15417,25.89083
358741209,2082,school,Temple Sinai Preschool,-80.1566667000,25.9483333000,-80.15667,25.94833
358741395,2082,school,Sinai Academy,-80.1558333000,25.9494444000,-80.15583,25.94944
358741518,2082,school,Samuel Scheck Hillel Community Day School,-80.1527778000,25.9502778000,-80.15278,25.95028
358741718,2082,school,Nova Southeastern University Fischer Center,-80.1660310000,25.9294368000,-80.16603,25.92944
358741818,2082,school,Northeast Academy,-80.1655556000,25.9297222000,-80.16556,25.92972
358741867,2082,school,North Country Charter School,-80.2547222000,25.8961111000,-80.25472,25.89611
358741885,2082,school,North Miami Adult School,-80.1827778000,25.8997222000,-80.18278,25.89972
358741923,2082,school,Miami Union Academy,-80.2050000000,25.8911111000,-80.205,25.89111
358741987,2082,school,Miami Gardens Infant and Preschool,-80.1975000000,25.9500000000,-80.1975,25.95
358742304,2082,school,John F Kennedy Head Start,-80.2197222000,25.9447222000,-80.21972,25.94472
358742530,2082,school,Good Shepherd Lutheran Preschool,-80.2047222000,25.8902778000,-80.20472,25.89028
358742614,2082,school,Florida International Academy,-80.2454478000,25.8952950000,-80.24545,25.8953
358742822,2082,school,Earlene Dorsett Academy,-80.2366667000,25.9000000000,-80.23667,25.9
358742825,2082,school,Earlene L Dorsett Academy,-80.2361111000,25.8988889000,-80.23611,25.89889
358742931,2082,school,District Instructional Center 17,-80.2577778000,25.9416667000,-80.25778,25.94167
358742934,2082,school,District Instructional Center 18,-80.2577778000,25.9416667000,-80.25778,25.94167
358743087,2082,school,Children's Academy Preschool,-80.1947222000,25.9013889000,-80.19472,25.90139
358743222,2082,school,Bunche Park Elementary Head Start,-80.2336836000,25.9206072000,-80.23368,25.92061
358743256,2082,school,Aventura Charter Elementary School,-80.1362161000,25.9498833000,-80.13622,25.94988
358743357,2082,school,Atlantic International University,-80.1666667000,25.8972222000,-80.16667,25.89722
358743405,2082,school,Allison Academy,-80.1600000000,25.9330556000,-80.16,25.93306
358751699,2082,school,Saint Thomas University Sullivan Hall,-80.2552000000,25.9204000000,-80.2552,25.9204
367818581,2083,kindergarten,Small Fry Educational Center,-80.1661364000,25.9294425000,-80.16614,25.92944
367818582,2083,kindergarten,Small Talk Academy,-80.2255556000,25.9416667000,-80.22556,25.94167
367818661,2083,kindergarten,Love Thy Kids Academy,-80.2377778000,25.9133333000,-80.23778,25.91333
367818738,2083,kindergarten,Jean's Kiddie Kollege,-80.2333333000,25.9263889000,-80.23333,25.92639
367822252,2083,kindergarten,Williams Day Care Center,-80.2255556000,25.9330556000,-80.22556,25.93306
367822554,2083,kindergarten,Small Wonders Child Care Center,-80.1836111000,25.8950000000,-80.18361,25.895
367822582,2083,kindergarten,Saint Pauls United Methodist Church Day Care Center,-80.1802778000,25.8961111000,-80.18028,25.89611
367822656,2083,kindergarten,Sierra Norwood Child Development Center,-80.2094444000,25.9497222000,-80.20944,25.94972
367822659,2083,kindergarten,Skipper Chuck Child Care Center,-80.2372222000,25.9369444000,-80.23722,25.93694
367822660,2083,kindergarten,Skipper Chuck Day Care Center,-80.2602778000,25.9502778000,-80.26028,25.95028
367822706,2083,kindergarten,Sunshine Day Care Center,-80.2127778000,25.9350000000,-80.21278,25.935
367822722,2083,kindergarten,Taylor Day Care Center,-80.2297222000,25.9136111000,-80.22972,25.91361
367822754,2083,kindergarten,Tysba Day Care and Learning Center,-80.1955556000,25.8844444000,-80.19556,25.88444
367822765,2083,kindergarten,Wee Care Day Care Center,-80.2311111000,25.9388889000,-80.23111,25.93889
367822856,2083,kindergarten,Libby's Kiddie Care Day Care Center,-80.2286111000,25.8888889000,-80.22861,25.88889
367822858,2083,kindergarten,Lewis Day Care Center,-80.2277778000,25.9302778000,-80.22778,25.93028
367822905,2083,kindergarten,My Kids Place Christian Day Care Center,-80.1725000000,25.9058333000,-80.1725,25.90583
367823052,2083,kindergarten,Northwood Baptist Church Day Care Center,-80.2147222000,25.8986111000,-80.21472,25.89861
367823089,2083,kindergarten,Collier Day Care Center,-80.2558333000,25.9127778000,-80.25583,25.91278
367823140,2083,kindergarten,Comprehensive Day Care Center,-80.2511111000,25.9411111000,-80.25111,25.94111
367823159,2083,kindergarten,Donny's Day Care Center,-80.2508333000,25.9247222000,-80.25083,25.92472
367823194,2083,kindergarten,Fulford Christian Day Care,-80.1618711000,25.9272222000,-80.16187,25.92722
367823210,2083,kindergarten,Golden Glades Day Care Center,-80.2447775000,25.9357156000,-80.24478,25.93572
367823219,2083,kindergarten,Harvey Day Care Center,-80.2280556000,25.9150000000,-80.22806,25.915
367823240,2083,kindergarten,Hazel Crawford Day Care Center,-80.1605556000,25.9177778000,-80.16056,25.91778
367823289,2083,kindergarten,Kiddies Day Care Center,-80.2302778000,25.9177778000,-80.23028,25.91778
367823568,2083,kindergarten,Biscayne Gardens Day Care Center,-80.2113889000,25.9150000000,-80.21139,25.915
367823572,2083,kindergarten,Bailey Day Care Center,-80.2208333000,25.9494444000,-80.22083,25.94944
367823599,2083,kindergarten,Bryan Day Care Center,-80.1633333000,25.9102778000,-80.16333,25.91028
367823637,2083,kindergarten,Bethany Lutheran Day Care Center,-80.2172222000,25.9419444000,-80.21722,25.94194
367823640,2083,kindergarten,Becky Veal - Niblack Day Care Center,-80.2469444000,25.9200000000,-80.24694,25.92
3221868716,2501,supermarket,Aldi,-80.2463432000,25.9487619000,-80.24634,25.94876
4304822942,2501,supermarket,Aldi,-80.1857774000,25.9292875000,-80.18578,25.92929
6027435589,2303,cafe,Starbucks,-80.1599470000,25.9002993000,-80.15995,25.9003
6029836583,2501,supermarket,The Fresh Market,-80.1469087000,25.9446596000,-80.14691,25.94466
6106679367,2303,cafe,Starbucks,-80.1650841000,25.8871902000,-80.16508,25.88719
6296277448,2303,cafe,Starbucks,-80.1397336000,25.9116605000,-80.13973,25.91166
358692551,2082,school,Broadmoor School,-80.2533828000,25.8498187000,-80.25338,25.84982
358695487,2082,school,Evans School,-80.2286599000,25.8437077000,-80.22866,25.84371
358695955,2082,school,Floral Heights School,-80.2375491000,25.8214864000,-80.23755,25.82149
358697595,2082,school,Holy Redeemer School,-80.2203263000,25.8389857000,-80.22033,25.83899
358698821,2082,school,Lakeview School,-80.2203262000,25.8792620000,-80.22033,25.87926
358699015,2082,school,Liberty City School,-80.2286599000,25.8392635000,-80.22866,25.83926
358699729,2082,school,Madison Junior High School,-80.2527670000,25.8518864000,-80.25277,25.85189
358701970,2082,school,Northwestern High School,-80.2161594000,25.8375968000,-80.21616,25.8376
358702528,2082,school,Orchard Villa School,-80.2197707000,25.8275972000,-80.21977,25.8276
358704881,2082,school,Saint Holmes School,-80.2161595000,25.8356525000,-80.21616,25.83565
358705217,2082,school,Saint Marys School,-80.2000478000,25.8428744000,-80.20005,25.84287
358706087,2082,school,Shadowlawn School,-80.1983811000,25.8209308000,-80.19838,25.82093
358708867,2082,school,West Little River School,-80.2386602000,25.8498186000,-80.23866,25.84982
358709581,2082,school,Miami Northwestern Senior High School,-80.2164373000,25.8378746000,-80.21644,25.83787
358709586,2082,school,Holmes School,-80.2100481000,25.8356525000,-80.21005,25.83565
358709589,2082,school,Crowder School,-80.2100481000,25.8356525000,-80.21005,25.83565
358709611,2082,school,Miami Country Day School,-80.1839360000,25.8742621000,-80.18394,25.87426
358709621,2082,school,Miami Preparatory School,-80.1814360000,25.8603737000,-80.18144,25.86037
358709699,2082,school,Yahweh Education Center,-80.1975477000,25.8309304000,-80.19755,25.83093
358712522,2082,school,Miami-Douglas MacArthur High School North,-80.2283820000,25.8623182000,-80.22838,25.86232
358712527,2082,school,Martin Luther King Elementary School,-80.2156038000,25.8392635000,-80.2156,25.83926
358712541,2082,school,North COPE Center,-80.2256042000,25.8248195000,-80.2256,25.82482
358712553,2082,school,Home/Hospital Instructional Program,-80.2679789000,25.8747368000,-80.26798,25.87474
358713985,2110,hospital,Douglas Gardens Hospital,-80.1929600000,25.8237323000,-80.19296,25.82373
358727409,2082,school,Interamerican Christian School - Second Campus,-80.2194929000,25.8287083000,-80.21949,25.82871
358727411,2082,school,Happy Nest Learning Center,-80.2014368000,25.8256528000,-80.20144,25.82565
358727416,2082,school,Griffins Day Care Nursery School,-80.2158817000,25.8328748000,-80.21588,25.83287
358727419,2082,school,Golden Slipper School,-80.2375491000,25.8256529000,-80.23755,25.82565
358727422,2082,school,Centervilla School,-80.2236598000,25.8220419000,-80.22366,25.82204
358727732,2082,school,Cooper School,-80.2306042000,25.8773176000,-80.2306,25.87732
358727857,2082,school,Cinderella School,-80.2644942000,25.8606517000,-80.26449,25.86065
358727859,2082,school,Champagnat Catholic School of Hialeah,-80.2697722000,25.8489855000,-80.26977,25.84899
358727862,2082,school,Boulevard Private School,-80.2717166000,25.8553741000,-80.27172,25.85537
358727865,2082,school,Young Years Day Care,-80.1919919000,25.8425966000,-80.19199,25.8426
358727867,2082,school,Turners Kindergarten,-80.1908369000,25.8362735000,-80.19084,25.83627
358727870,2082,school,Tots Town University Child Care Center,-80.1753247000,25.8473186000,-80.17532,25.84732
358727872,2082,school,Tots for Christ School,-80.1794914000,25.8564850000,-80.17949,25.85648
358727878,2082,school,Sparks Kindergarten and Day Care,-80.1825472000,25.8450965000,-80.18255,25.8451
358727887,2082,school,Saint James Day Care,-80.1833805000,25.8542629000,-80.18338,25.85426
358727896,2082,school,Mizell Kiddie Kampus,-80.2008811000,25.8595405000,-80.20088,25.85954
358727899,2082,school,Lincoln-Marti Day Care Center,-80.2067145000,25.8703734000,-80.20671,25.87037
358728132,2082,school,Lafayette Private School,-80.2039367000,25.8712067000,-80.20394,25.87121
358728145,2082,school,First Baptist Schools,-80.2719945000,25.8198198000,-80.27199,25.81982
358728160,2082,school,Community Outreach Center,-80.2389380000,25.8564851000,-80.23894,25.85649
358728163,2082,school,Cook Kindergarten,-80.2289377000,25.8375969000,-80.22894,25.8376
358728170,2082,school,Elizabeth E Curtis Child Care Center,-80.2036590000,25.8384302000,-80.20366,25.83843
358728173,2082,school,First Deliverance Kindergarten,-80.2292153000,25.8500964000,-80.22922,25.8501
358728178,2082,school,Little Skippers Preschool/Kindergarten,-80.2275487000,25.8356525000,-80.22755,25.83565
358728183,2082,school,New Antioch Moriah Day Care Center,-80.2147705000,25.8450966000,-80.21477,25.8451
358728185,2082,school,Sands Small World School,-80.2264376000,25.8467632000,-80.22644,25.84676
358728672,2082,school,Von Wedel Montessori School,-80.2136592000,25.8759288000,-80.21366,25.87593
358728705,2082,school,Shores Academy for the Gifted,-80.1747691000,25.8489852000,-80.17477,25.84899
358728710,2082,school,Seventy-ninth Street Baptist Kindergarten,-80.2358823000,25.8503742000,-80.23588,25.85037
358728732,2082,school,Riverside Child Development Center,-80.2428269000,25.8698179000,-80.24283,25.86982
358728747,2082,school,Pratts Kindergarten,-80.2039369000,25.8267639000,-80.20394,25.82676
358728791,2082,school,Johnsons Toddlers University,-80.2192151000,25.8309305000,-80.21922,25.83093
358728808,2082,school,Miami Shores Preparation School,-80.1872694000,25.8767620000,-80.18727,25.87676
358728810,2082,school,Miami Shores Community Church Day Care,-80.1803248000,25.8767620000,-80.18032,25.87676
358729089,2082,school,Centro Hispano Catolico,-80.2428271000,25.8350970000,-80.24283,25.8351
358730261,2082,school,Miami Technical College,-80.2739390000,25.8378748000,-80.27394,25.83787
358731409,2082,school,Palm Day School,-80.2706054000,25.8753734000,-80.27061,25.87537
358735465,2082,school,Learning Development Center,-80.2067146000,25.8575961000,-80.20671,25.8576
358740778,2082,school,William H Turner Technical School,-80.2333333000,25.8730556000,-80.23333,25.87306
358740990,2082,school,Unification Academy for Learning West,-80.2111111000,25.8188889000,-80.21111,25.81889
358740994,2082,school,Unification Academy of Learning 1st Campus,-80.2250000000,25.8611111000,-80.225,25.86111
358741026,2082,school,The Learning Tree Preschool,-80.1791667000,25.8561111000,-80.17917,25.85611
358741042,2082,school,Thomas Tot Kindergarten and Nursery,-80.2433333000,25.8558333000,-80.24333,25.85583
358741125,2082,school,The Glory of God Christian School,-80.2730556000,25.8338889000,-80.27306,25.83389
358741372,2082,school,Shores School,-80.2065836000,25.8620714000,-80.20658,25.86207
358741583,2082,school,Rader School,-80.1925497000,25.8555355000,-80.19255,25.85554
358742004,2082,school,Miami Lakes Educational Center,-80.2147243000,25.8385840000,-80.21472,25.83858
358742019,2082,school,Miami Northwestern Adult School,-80.2147206000,25.8386083000,-80.21472,25.83861
358742185,2082,school,Lincoln-Marti School 2nd Campus,-80.2319444000,25.8680556000,-80.23194,25.86806
358742201,2082,school,Lincoln-Marti School 9th Campus,-80.1886262000,25.8329495000,-80.18863,25.83295
358742376,2082,school,Holy Redeemer Head Start,-80.2197222000,25.8391667000,-80.21972,25.83917
358742701,2082,school,Evangelism for Christ Christian Day School,-80.2061111000,25.8688889000,-80.20611,25.86889
358742801,2082,school,Dorsey Skill Center Head Start,-80.2255414000,25.8392530000,-80.22554,25.83925
358742894,2082,school,Delta Christian Academy,-80.2338889000,25.8680556000,-80.23389,25.86806
358742897,2082,school,Delta's Kiddie Academy,-80.2341667000,25.8675000000,-80.23417,25.8675
358742912,2082,school,District Instructional Center 11,-80.2269444000,25.8613889000,-80.22694,25.86139
358742928,2082,school,District Instructional Center 16,-80.2161193000,25.8383333000,-80.21612,25.83833
358743084,2082,school,Children's Academy Number 2,-80.2302778000,25.8697222000,-80.23028,25.86972
358743110,2082,school,Christ Crusade Academy,-80.2485472000,25.8589337000,-80.24855,25.85893
358743141,2082,school,Clara B Knight Development Center,-80.2400000000,25.8519444000,-80.24,25.85194
358743297,2082,school,Belafonte Tacolcy Ceenter Preschool,-80.2111111000,25.8319444000,-80.21111,25.83194
358743316,2082,school,Bethany Community Kindergarten,-80.2386111000,25.8202778000,-80.23861,25.82028
358743409,2082,school,Alpha Academy,-80.2000000000,25.8338889000,-80.2,25.83389
367818554,2083,kindergarten,Thumbelina Learning Center,-80.2747222000,25.8558333000,-80.27472,25.85583
367818596,2083,kindergarten,Revival Center Childcare,-80.2231566000,25.8355791000,-80.22316,25.83558
367818681,2083,kindergarten,Kids Klub International,-80.1830556000,25.8488889000,-80.18306,25.84889
367818721,2083,kindergarten,Kiddie Academy,-80.1938889000,25.8516667000,-80.19389,25.85167
367818768,2083,kindergarten,Funway Learning Center,-80.2308333000,25.8300000000,-80.23083,25.83
367818806,2083,kindergarten,Children Christian Learning Center,-80.2485721000,25.8590253000,-80.24857,25.85903
367822254,2083,kindergarten,Williams Day Care Center,-80.2297222000,25.8394444000,-80.22972,25.83944
367822601,2083,kindergarten,Progressive Day Care Center,-80.2419432000,25.8608910000,-80.24194,25.86089
367822624,2083,kindergarten,Sparks Day Care Center,-80.2177778000,25.8488889000,-80.21778,25.84889
367822647,2083,kindergarten,Sharie Conner Day Care Center,-80.2130556000,25.8572222000,-80.21306,25.85722
367822701,2083,kindergarten,Super Kids Christian Day Care Center,-80.1902778000,25.8252778000,-80.19028,25.82528
367822756,2083,kindergarten,Unification Child Care Center,-80.2250000000,25.8611111000,-80.225,25.86111
367822800,2083,kindergarten,La Scala Preschool Musikids,-80.2730556000,25.8411111000,-80.27306,25.84111
367822819,2083,kindergarten,Little Dolphin Number 2 Day Care Center,-80.2747222000,25.8547222000,-80.27472,25.85472
367822822,2083,kindergarten,Little Dream Dolphin Day Care Center,-80.2747222000,25.8544444000,-80.27472,25.85444
367822826,2083,kindergarten,Kids City Day Care Center,-80.2702778000,25.8258333000,-80.27028,25.82583
367822847,2083,kindergarten,Lemon City Day Care Center,-80.1950000000,25.8288889000,-80.195,25.82889
367822867,2083,kindergarten,McDonald's Playworld of Knowledge Day Care Center,-80.2002778000,25.8341667000,-80.20028,25.83417
367822871,2083,kindergarten,Martin Luther King YMCA Day Care Center,-80.2300000000,25.8316667000,-80.23,25.83167
367822895,2083,kindergarten,Little River Baptist Day Care Center,-80.2052778000,25.8452778000,-80.20528,25.84528
367822970,2083,kindergarten,Mizell Kiddie Kampus Day Care Center,-80.2301872000,25.8608351000,-80.23019,25.86084
367822985,2083,kindergarten,Miami Shores Community Church Day Care Center,-80.1893161000,25.8656033000,-80.18932,25.8656
367823014,2083,kindergarten,Our Little Ones Day Care Center,-80.1977778000,25.8297222000,-80.19778,25.82972
367823083,2083,kindergarten,Randolph's Kiddies Inn Day Care Center,-80.2322222000,25.8333333000,-80.23222,25.83333
367823102,2083,kindergarten,Childrens World Day Care Center,-80.2000000000,25.8225000000,-80.2,25.8225
367823118,2083,kindergarten,El Caballito Blanco Day Care Center,-80.2708333000,25.8230556000,-80.27083,25.82306
367823142,2083,kindergarten,Cruz Day Care Center,-80.2713889000,25.8736111000,-80.27139,25.87361
367823174,2083,kindergarten,El Arca Day Care Center,-80.2736111000,25.8286111000,-80.27361,25.82861
367823208,2083,kindergarten,Glory of God Child Development Center,-80.2727778000,25.8327778000,-80.27278,25.83278
367823241,2083,kindergarten,Jesca - Liberty Square Child Care Center,-80.2211688000,25.8334810000,-80.22117,25.83348
367823317,2083,kindergarten,Juanita's Day Care Center,-80.2405556000,25.8352778000,-80.24056,25.83528
367823557,2083,kindergarten,Caperucita Child Care Center,-80.2727778000,25.8466667000,-80.27278,25.84667
367823565,2083,kindergarten,Bible Baptist Church Day Care Center,-80.2383333000,25.8638889000,-80.23833,25.86389
367823591,2083,kindergarten,Bola Child Care and Learning Center,-80.1952778000,25.8477778000,-80.19528,25.84778
367823603,2083,kindergarten,C B Knight Child Development Center,-80.2396878000,25.8518004000,-80.23969,25.8518
367823647,2083,kindergarten,Advent Lutheran Church Child Care Center,-80.1936111000,25.8705556000,-80.19361,25.87056
367826942,2013,nursing_home,Franco Nursing and Rehabilitation Center,-80.2121327000,25.8611463000,-80.21213,25.86115
367827001,2013,nursing_home,Mount Sinai - Saint Francis Nursing Home,-80.1938889000,25.8775000000,-80.19389,25.8775
367827002,2013,nursing_home,North Shore Nursing Home,-80.2100000000,25.8602778000,-80.21,25.86028
1019463999,2082,school,Lincoln Marti,-80.2325255000,25.8686990000,-80.23253,25.8687
1019466347,2501,supermarket,Winn Dixie,-80.2111858000,25.8759005000,-80.21119,25.8759
2311940212,2303,cafe,Starbucks,-80.1840387000,25.8386101000,-80.18404,25.83861
3219724629,2303,cafe,Europa Car Wash & Cafe,-80.1836450000,25.8324686000,-80.18364,25.83247
4142580191,2402,motel,Royal Motel,-80.1843225000,25.8434902000,-80.18432,25.84349
4142580192,2402,motel,King Motel,-80.1847624000,25.8410521000,-80.18476,25.84105
4142580197,2402,motel,Carl's El Padre Motel,-80.1850628000,25.8309177000,-80.18506,25.83092
4142580198,2402,motel,Motel Bianco,-80.1866935000,25.8250462000,-80.18669,25.82505
4145626489,2402,motel,Bianco Motel,-80.1867629000,25.8250675000,-80.18676,25.82507
4175040134,2303,cafe,Le Cafe de Louison,-80.1788936000,25.8477794000,-80.17889,25.84778
4655024991,2501,supermarket,Presidente,-80.2428373000,25.8498751000,-80.24284,25.84988
4951029824,2082,school,MIAM EDISON MIDDLE,-80.2000267000,25.8316241000,-80.20003,25.83162
6196011885,2402,motel,,-80.1753343000,25.8505522000,-80.17533,25.85055
358693244,2082,school,Carver High School,-80.2592169000,25.7242677000,-80.25922,25.72427
358693838,2082,school,Coconut Grove School,-80.2431052000,25.7284342000,-80.24311,25.72843
358696965,2082,school,Gulliver School,-80.2522723000,25.7178789000,-80.25227,25.71788
358705533,2082,school,Saint Stephens School,-80.2425497000,25.7270453000,-80.24255,25.72705
358728084,2082,school,Ransom Everglades School,-80.2650504000,25.7209345000,-80.26505,25.72093
358728092,2082,school,Saint Hugh School,-80.2583836000,25.7126013000,-80.25838,25.7126
358728095,2082,school,Vanguard School of Coconut Grove,-80.2622725000,25.7267676000,-80.26227,25.72677
358728727,2082,school,Saint Christophers by the Sea Montessori School,-80.1634460000,25.6989643000,-80.16345,25.69896
358729047,2082,school,Learning Experience School,-80.2553280000,25.7239898000,-80.25533,25.72399
358729059,2082,school,Granada Christian,-80.2644948000,25.7281564000,-80.26449,25.72816
358729203,2082,school,Saint Hugh Church and School,-80.2472721000,25.7234343000,-80.24727,25.72343
358730012,2082,school,Vanguard School,-80.2517167000,25.7184345000,-80.25172,25.71843
358741497,2082,school,Saint Stephen's Episcopal School,-80.2430556000,25.7280556000,-80.24306,25.72806
358741601,2082,school,Plymouth Preschool of Plymouth Congregational Church,-80.2483333000,25.7222222000,-80.24833,25.72222
358742669,2082,school,Gibson Charter School,-80.2519444000,25.7263889000,-80.25194,25.72639
358743030,2082,school,Coconout Grove Elementary Head Start,-80.2436111000,25.7288889000,-80.24361,25.72889
358743218,2082,school,Bryan Cares Preschool,-80.2466667000,25.7233333000,-80.24667,25.72333
358743376,2082,school,Academy of Arts and Minds School,-80.2444512000,25.7270884000,-80.24445,25.72709
367818583,2083,kindergarten,Saint Alban's Day Nursery,-80.2558333000,25.7283333000,-80.25583,25.72833
367818590,2083,kindergarten,Saint Albans Day Nursery Number 3,-80.2483333000,25.7263889000,-80.24833,25.72639
367818592,2083,kindergarten,Ranson Everglades Children's Center,-80.2447222000,25.7258333000,-80.24472,25.72583
367822719,2083,kindergarten,Taylor Day Care Center,-80.2513779000,25.7269128000,-80.25138,25.72691
367822730,2083,kindergarten,World of Children Day Care Center,-80.2511853000,25.7269066000,-80.25119,25.72691
367822751,2083,kindergarten,Westbrook Day Care Center,-80.2538889000,25.7288889000,-80.25389,25.72889
763658494,2303,cafe,GreenStreet,-80.2439936000,25.7267352000,-80.24399,25.72674
2079367918,2501,supermarket,Winn Dixie,-80.1648649000,25.6896178000,-80.16486,25.68962
2498529919,2504,mall,CocoWalk,-80.2420384000,25.7286438000,-80.24204,25.72864
4893958422,2303,cafe,Starbucks,-80.2631185000,25.7256093000,-80.26312,25.72561
5165237879,2303,cafe,Starbucks,-80.1631442000,25.6978020000,-80.16314,25.6978
358708422,2082,school,University of Miami,-80.4044990000,25.6234386000,-80.4045,25.62344
358728789,2082,school,Montessori School of Kendall,-80.4094988000,25.6878807000,-80.4095,25.68788
358730192,2082,school,Boystown of Florida,-80.4189437000,25.6587151000,-80.41894,25.65872
358730196,2082,school,Heritage School,-80.4100546000,25.6551041000,-80.41005,25.6551
358738262,2082,school,Temple Samu-el or Okom School,-80.4400552000,25.6798255000,-80.44006,25.67983
358740934,2082,school,Ward Stone College,-80.4175000000,25.6841667000,-80.4175,25.68417
358741104,2082,school,The Early Education Preschool,-80.4386111000,25.6802778000,-80.43861,25.68028
358741689,2082,school,Pinecrest Preparatory Academy,-80.4263044000,25.7295316000,-80.4263,25.72953
358741919,2082,school,Miami Sunset Adult School,-80.4055065000,25.7018671000,-80.40551,25.70187
358741939,2082,school,Montessori Learning Center,-80.4227778000,25.6883333000,-80.42278,25.68833
358742044,2082,school,Lollipop Cooperative Preschool,-80.4052727000,25.6921527000,-80.40527,25.69215
358742047,2082,school,Lord of Life Lutheran Preschool,-80.4163889000,25.6819444000,-80.41639,25.68194
358742238,2082,school,Kid's World Preschool,-80.4130556000,25.7138889000,-80.41306,25.71389
358742257,2082,school,Kings Meadow Day School,-80.4211111000,25.6758333000,-80.42111,25.67583
358742502,2082,school,Happy Hammock Cooperative Preschool,-80.4247222000,25.6936111000,-80.42472,25.69361
358742529,2082,school,Good Sheperd School,-80.4219444000,25.7000000000,-80.42194,25.7
358742532,2082,school,Gordon Primary School Manatee,-80.4169444000,25.6211111000,-80.41694,25.62111
358742569,2082,school,Gilbert L Porter Elementary School,-80.4524813000,25.6651253000,-80.45248,25.66513
358742777,2082,school,Doctor Gilbert L Porter Primary School,-80.4527778000,25.6647222000,-80.45278,25.66472
358743287,2082,school,Barry University South Campus,-80.4161111000,25.6861111000,-80.41611,25.68611
358743344,2082,school,Ashe Primary School,-80.4633333000,25.6983333000,-80.46333,25.69833
358743443,2082,school,Archbishop Carroll High School,-80.4674612000,25.6710181000,-80.46746,25.67102
367818655,2083,kindergarten,Noah's Ark Learning Center,-80.4397222000,25.7272222000,-80.43972,25.72722
367818677,2083,kindergarten,KinderCare,-80.4205423000,25.7220627000,-80.42054,25.72206
367818679,2083,kindergarten,Kinder Care Learning Center,-80.4261111000,25.6786111000,-80.42611,25.67861
367818680,2083,kindergarten,Kids Learning Center,-80.4314276000,25.7136718000,-80.43143,25.71367
367818702,2083,kindergarten,Kids Adventure Learning Center,-80.4194444000,25.7141667000,-80.41944,25.71417
367818720,2083,kindergarten,Kiddie College of South Miami,-80.4094444000,25.7305556000,-80.40944,25.73056
367818740,2083,kindergarten,For Kids Sake Academy,-80.4163889000,25.6833333000,-80.41639,25.68333
367822553,2083,kindergarten,Small Wonders of Miami Day Care Center,-80.4066667000,25.6552778000,-80.40667,25.65528
367822585,2083,kindergarten,Precious Smiles Day Care Center,-80.4366667000,25.6991667000,-80.43667,25.69917
367822789,2083,kindergarten,Kinder Babez Academy and Day Care Center,-80.4169583000,25.6784347000,-80.41696,25.67843
367822815,2083,kindergarten,Kids Zone Day Care Center,-80.4161111000,25.6202778000,-80.41611,25.62028
367822816,2083,kindergarten,Kids World Child Care Center,-80.4127778000,25.7144444000,-80.41278,25.71444
367822828,2083,kindergarten,Kids Depot Day Care Center,-80.4282296000,25.7220630000,-80.42823,25.72206
367822877,2083,kindergarten,Little Thinkers Club Day Care Center,-80.4166667000,25.6261111000,-80.41667,25.62611
367822883,2083,kindergarten,Maldonodo Day Care Center,-80.4408333000,25.6652778000,-80.44083,25.66528
367822887,2083,kindergarten,Loving Child Care Day Care Center,-80.4313889000,25.6702778000,-80.43139,25.67028
367822899,2083,kindergarten,Little Promises Day Care Center,-80.4388889000,25.7136111000,-80.43889,25.71361
367822938,2083,kindergarten,My First Step Day Care Center,-80.4027778000,25.7297222000,-80.40278,25.72972
367822975,2083,kindergarten,Montessori Children's House,-80.4038889000,25.6638889000,-80.40389,25.66389
367823001,2083,kindergarten,Norma Pozo Family Day Care Home,-80.4461111000,25.6797222000,-80.44611,25.67972
367823059,2083,kindergarten,Pena Day Care Center,-80.4136111000,25.5997222000,-80.41361,25.59972
367823098,2083,kindergarten,Children's Clubhouse Day Care Center,-80.4165853000,25.6630742000,-80.41659,25.66307
367823212,2083,kindergarten,Gonzalez Day Care Center,-80.4088889000,25.6991667000,-80.40889,25.69917
367823213,2083,kindergarten,Gonzalez Day Care Center,-80.4075000000,25.7061111000,-80.4075,25.70611
367823232,2083,kindergarten,Good Shepherd Catholic Church Day Care Center,-80.4247222000,25.6997222000,-80.42472,25.69972
367823253,2083,kindergarten,Happy Hippo Day Care and Learning Center,-80.4457282000,25.6845838000,-80.44573,25.68458
367823269,2083,kindergarten,Kiddie Kampus Too Day Care Center,-80.4094444000,25.6588889000,-80.40944,25.65889
367823306,2083,kindergarten,Lago Mar Preschool,-80.4472426000,25.6986011000,-80.44724,25.6986
367823583,2083,kindergarten,Carratala Day Care Center,-80.4366667000,25.6080556000,-80.43667,25.60806
367823608,2083,kindergarten,Candyland Child Care Center,-80.4166667000,25.7308333000,-80.41667,25.73083
367823665,2083,kindergarten,Ana Sandoval Family Day Care Center,-80.4313889000,25.6900000000,-80.43139,25.69
553982931,2501,supermarket,Publix,-80.4485695000,25.6264082000,-80.44857,25.62641
2940214475,2504,mall,Shoppes at 104,-80.4314132000,25.6713614000,-80.43141,25.67136
2940214862,2501,supermarket,Publix,-80.4430896000,25.6722111000,-80.44309,25.67221
2940215147,2501,supermarket,Sedano's Supermarket,-80.4555092000,25.6853355000,-80.45551,25.68534
2940215187,2501,supermarket,Publix,-80.4645963000,25.6828670000,-80.4646,25.68287
2940215249,2501,supermarket,Presidente Supermarket,-80.4326142000,25.6839037000,-80.43261,25.6839
2940215314,2303,cafe,Starbucks,-80.4151829000,25.6847666000,-80.41518,25.68477
2940285679,2501,supermarket,Publix,-80.4184951000,25.7133301000,-80.4185,25.71333
2940285776,2501,supermarket,Publix,-80.4409974000,25.7268832000,-80.441,25.72688
2940399004,2501,supermarket,Publix,-80.4484821000,25.7146240000,-80.44848,25.71462
2940399094,2303,cafe,Starbucks,-80.4152565000,25.6540021000,-80.41526,25.654
2940399288,2501,supermarket,Publix,-80.4066932000,25.6648122000,-80.40669,25.66481
3581033415,2501,supermarket,Aldi,-80.4596592000,25.6827945000,-80.45966,25.68279
6028691785,2082,school,Miami Sunset Senior High,-80.4051657000,25.7015683000,-80.40517,25.70157
6326872847,2303,cafe,Starbucks,-80.4376081000,25.6856100000,-80.43761,25.68561
358692100,2082,school,Biscayne School,-80.1267118000,25.8612069000,-80.12671,25.86121
358705059,2082,school,Saint Josephs School,-80.1233784000,25.8712065000,-80.12338,25.87121
358709645,2082,school,Montessori School,-80.1253230000,25.8564848000,-80.12532,25.85648
358727634,2082,school,Abbott School Day Care,-80.1253230000,25.8567626000,-80.12532,25.85676
358727637,2082,school,Montessori School of Miami Beach,-80.1208784000,25.8414854000,-80.12088,25.84149
358727640,2082,school,Normandy School,-80.1261563000,25.8623179000,-80.12616,25.86232
358727646,2082,school,Toras Emes Academy of Miami - First Campus,-80.1522683000,25.8531517000,-80.15227,25.85315
358727941,2082,school,Little White Schoolhouse,-80.1278231000,25.8642624000,-80.12782,25.86426
358727947,2082,school,Knobel School,-80.1278231000,25.8667623000,-80.12782,25.86676
358727950,2082,school,Fulford Christian Day Care Center,-80.1372678000,25.8631513000,-80.13727,25.86315
358742107,2082,school,Lehrman Day School-Early Childhood Center,-80.1261111000,25.8619444000,-80.12611,25.86194
358743254,2082,school,Biscayne Elementary Head Start,-80.1268656000,25.8615495000,-80.12687,25.86155
358743455,2082,school,Abbott School and Day Care Number 4,-80.1419444000,25.8525000000,-80.14194,25.8525
358743459,2082,school,Abc A Learning Preschool,-80.1247222000,25.8633333000,-80.12472,25.86333
367818559,2083,kindergarten,Treasure Isle Care Center,-80.1505556000,25.8472222000,-80.15056,25.84722
4039215225,2501,supermarket,Publix Supermarket,-80.1207712000,25.8532000000,-80.12077,25.8532
4178649404,2501,supermarket,M&L Food Market,-80.1212017000,25.8604096000,-80.1212,25.86041
4183839108,2501,supermarket,Auto Tag Agency,-80.1254152000,25.8558306000,-80.12542,25.85583
4492451789,2405,hostel,airbnb,-80.1264463000,25.8438870000,-80.12645,25.84389
358692223,2082,school,Blessed Trinity School,-80.2914396000,25.8112091000,-80.29144,25.81121
358727429,2082,school,All Angels Episcopal School,-80.2831059000,25.8189866000,-80.28311,25.81899
358727433,2082,school,Miami Springs Baptist Church Kindergarten,-80.3017175000,25.8259309000,-80.30172,25.82593
358727436,2082,school,New Beavers Kiddie Kollege,-80.2989465000,25.8217863000,-80.29895,25.82179
358728218,2082,school,Apple Tree Preschool,-80.2869949000,25.8359305000,-80.28699,25.83593
358728902,2082,school,Cinderella Day Nursery,-80.2803281000,25.8331528000,-80.28033,25.83315
358741449,2082,school,Renaissance Charter Middle School,-80.3327778000,25.8033333000,-80.33278,25.80333
358741917,2082,school,Miami Springs Seventh-Day Adventist School,-80.2888889000,25.8130556000,-80.28889,25.81306
358742192,2082,school,Lincoln-Marti School 4th Campus,-80.2830556000,25.8311111000,-80.28306,25.83111
358742586,2082,school,First Presbyterian Church Preschool,-80.2861111000,25.8211111000,-80.28611,25.82111
358742677,2081,university,Embry Riddle Aeronautical Unversity,-80.2800000000,25.8072222000,-80.28,25.80722
358742851,2082,school,District Instructional Center 6,-80.2936111000,25.8302778000,-80.29361,25.83028
358742947,2082,school,District Instructional Center 5,-80.2947222000,25.8302778000,-80.29472,25.83028
358743097,2082,school,Children's Christian School House,-80.2913889000,25.8330556000,-80.29139,25.83306
358743242,2082,school,Caribbean Center for Advanced Studies Miami Institute,-80.3288889000,25.8088889000,-80.32889,25.80889
358743425,2082,school,Andy's Nursery School,-80.2902778000,25.8311111000,-80.29028,25.83111
367818750,2083,kindergarten,Grace Lutheran Church Child Learning Center,-80.2844444000,25.8183333000,-80.28444,25.81833
367818766,2083,kindergarten,Genesis Child Care Center,-80.3538208000,25.8131874000,-80.35382,25.81319
367818812,2083,kindergarten,Childrens Enrichment Center,-80.2850000000,25.8238889000,-80.285,25.82389
367822636,2083,kindergarten,Second Home Day Care Center,-80.2838907000,25.8280805000,-80.28389,25.82808
367822836,2083,kindergarten,Lincoln-Marti Day Care Center,-80.2835351000,25.8315990000,-80.28354,25.8316
367822838,2083,kindergarten,Lincoln-Marti Day Care Center,-80.2839018000,25.8316049000,-80.2839,25.8316
367822874,2083,kindergarten,Little Village Day Care Center,-80.3166667000,25.8091667000,-80.31667,25.80917
367823020,2083,kindergarten,Obispo Duncan Day Care Center,-80.2911111000,25.8330556000,-80.29111,25.83306
367823122,2083,kindergarten,El Travieso Day Care Center,-80.2811111000,25.8280556000,-80.28111,25.82806
367823559,2083,kindergarten,Caring for Kids Day Care Center,-80.3304988000,25.8217931000,-80.3305,25.82179
367823605,2083,kindergarten,Camp Carnival Child Development Center,-80.3372222000,25.8083333000,-80.33722,25.80833
762652208,2501,supermarket,Sedanos,-80.3716769000,25.8249659000,-80.37168,25.82497
762657394,2501,supermarket,Publix,-80.3712150000,25.8273191000,-80.37122,25.82732
762668743,2501,supermarket,Publix,-80.3553692000,25.8127513000,-80.35537,25.81275
762669750,2303,cafe,Starbucks,-80.3538162000,25.8130097000,-80.35382,25.81301
765382438,2501,supermarket,Winn-Dixie,-80.3670441000,25.8127711000,-80.36704,25.81277
1251052467,2082,school,Jim McLean Golf School,-80.3387987000,25.8183610000,-80.3388,25.81836
1314573791,2501,supermarket,Milam's Market,-80.2827560000,25.8221299000,-80.28276,25.82213
1392325627,2402,motel,,-80.2889784000,25.8086755000,-80.28898,25.80868
1757183080,2303,cafe,Starbucks,-80.2812914000,25.8218295000,-80.28129,25.82183
2232535435,2303,cafe,,-80.3630406000,25.8225258000,-80.36304,25.82253
2612319720,2303,cafe,Bazzura Cafe,-80.3664839000,25.8120323000,-80.36648,25.81203
3880460173,2083,kindergarten,Little Hands On Learning,-80.3703564000,25.8277703000,-80.37036,25.82777
3913721684,2082,school,Divine Saviour Elementary,-80.3650042000,25.8264857000,-80.365,25.82649
4362267164,2402,motel,Motel 6,-80.3162828000,25.8087537000,-80.31628,25.80875
4376689590,2501,supermarket,clarion inn,-80.2822541000,25.8082307000,-80.28225,25.80823
5327245677,2501,supermarket,The Fresh Market,-80.3318596000,25.8093401000,-80.33186,25.80934
5400323721,2303,cafe,Starbucks,-80.3147771000,25.8086655000,-80.31478,25.80867
6062282954,2082,school,Doral international academy of math and science,-80.3667737000,25.8347692000,-80.36677,25.83477
358697826,2082,school,Immaculate Conception School,-80.2856059000,25.8634295000,-80.28561,25.86343
358698236,2082,school,Johnson School,-80.2967246000,25.8428078000,-80.29672,25.84281
358727846,2082,school,Faith Lutheran School,-80.2931061000,25.8537076000,-80.29311,25.85371
358727851,2082,school,Edison Private School - First Campus,-80.2864393000,25.8575963000,-80.28644,25.8576
358728149,2082,school,Sunrise Presbyterian Church Preschool,-80.2896696000,25.8403199000,-80.28967,25.84032
358728805,2082,school,Hialeah Gardens Academy,-80.2928284000,25.8559298000,-80.29283,25.85593
358729093,2082,school,Tiny Tots Day Nursery and Kindergarten,-80.2983840000,25.8517632000,-80.29838,25.85176
358730258,2082,school,Edison School,-80.2808836000,25.8406525000,-80.28088,25.84065
358731351,2082,school,Youth Crusade Child Care,-80.2825502000,25.8773178000,-80.28255,25.87732
358731358,2082,school,Sharon Christian Academy,-80.2969950000,25.8850953000,-80.297,25.8851
358731361,2082,school,Roblanca Academy,-80.2956060000,25.8823176000,-80.29561,25.88232
358731368,2082,school,Horeb Christian School,-80.3094953000,25.8837065000,-80.3095,25.88371
358731378,2082,school,Miami Lakes Congregational Church Preschool,-80.3094952000,25.9045392000,-80.3095,25.90454
358731441,2082,school,Iglesias Church and School,-80.2925503000,25.9339825000,-80.29255,25.93398
358731480,2082,school,Lavenia Bilingual School,-80.3692191000,25.8898175000,-80.36922,25.88982
358740819,2082,school,Youth Cooperative Charter School,-80.3430556000,25.8700000000,-80.34306,25.87
358740981,2082,school,West Hialeah Baptist Kindergarten,-80.2963889000,25.8508333000,-80.29639,25.85083
358740998,2082,school,United Lakes Methodist Preschool,-80.3083333000,25.9080556000,-80.30833,25.90806
358741049,2082,school,Three Flags Academy,-80.3122222000,25.8844444000,-80.31222,25.88444
358741113,2082,school,The Enrichment Center,-80.3311111000,25.9088889000,-80.33111,25.90889
358741327,2082,school,Snow White and the Seven Dwarfs School,-80.3311111000,25.8730556000,-80.33111,25.87306
358741367,2082,school,Shalom Christian School,-80.3238889000,25.8730556000,-80.32389,25.87306
358741370,2082,school,Sheppard Primary School,-80.3322222000,25.8733333000,-80.33222,25.87333
358741392,2082,school,Silvia's School,-80.3122222000,25.8875000000,-80.31222,25.8875
358741510,2082,school,Saint Thomas University Villanuva Center,-80.3163889000,25.8641667000,-80.31639,25.86417
358741543,2082,school,Roblanca Academy,-80.3069444000,25.8861111000,-80.30694,25.88611
358741562,2082,school,Primary Learning Center B,-80.3605556000,25.8952778000,-80.36056,25.89528
358741586,2082,school,Rainbow Christian School,-80.2841667000,25.8466667000,-80.28417,25.84667
358741623,2082,school,Paradise Christian School,-80.3263889000,25.8786111000,-80.32639,25.87861
358741998,2082,school,Miami Lakes Christian Academy,-80.3030556000,25.9111111000,-80.30306,25.91111
358742235,2082,school,Kids Day Care and Kindergarten,-80.3100000000,25.8850000000,-80.31,25.885
358742474,2082,school,Hialeah Gardens Primary School,-80.3575797000,25.8913132000,-80.35758,25.89131
358742505,2082,school,Happy Start Child Care and Kindergarten,-80.3411111000,25.8761111000,-80.34111,25.87611
358742507,2082,school,Happy Start Day Care Center and Kindergarten,-80.3397222000,25.8761111000,-80.33972,25.87611
358742642,2082,school,Friendship House Cooperative Preschool,-80.3088889000,25.8741667000,-80.30889,25.87417
358742687,2082,school,Enrichment Center of Miami Lakes,-80.3311111000,25.9100000000,-80.33111,25.91
358742710,2082,school,Fairytales Preschool,-80.3086111000,25.8552778000,-80.30861,25.85528
358743125,2082,school,Christ-Mar Kindergarten,-80.3122222000,25.8850000000,-80.31222,25.885
358743129,2082,school,Christ-Mar Private School,-80.3122222000,25.8866667000,-80.31222,25.88667
358743427,2082,school,Apple Tree Montessori Preschool,-80.3266793000,25.9348242000,-80.32668,25.93482
358743430,2082,school,Apple Tree Preschool,-80.3266667000,25.9327778000,-80.32667,25.93278
367818558,2083,kindergarten,The Children Kingdom Learning Center,-80.2919116000,25.8814557000,-80.29191,25.88146
367818580,2083,kindergarten,Royal Kids Academy Number 2,-80.3469444000,25.8913889000,-80.34694,25.89139
367818586,2083,kindergarten,Royals Kids Academy,-80.3661111000,25.8869444000,-80.36611,25.88694
367818587,2083,kindergarten,Precious Academy,-80.2847222000,25.9516667000,-80.28472,25.95167
367818646,2083,kindergarten,New Aladdin Learning Center,-80.3152778000,25.8763889000,-80.31528,25.87639
367818656,2083,kindergarten,New World Kids Academy,-80.3119444000,25.9386111000,-80.31194,25.93861
367818666,2083,kindergarten,Miami Lakes Congregational Church Early Childhood Education Center,-80.3082861000,25.9039479000,-80.30829,25.90395
367818685,2083,kindergarten,Jiny's Learning Center,-80.3150000000,25.8711111000,-80.315,25.87111
367818811,2083,kindergarten,Christian Creative Learning Center,-80.3103713000,25.9559439000,-80.31037,25.95594
367818822,2083,kindergarten,Country Club Children's Care Center,-80.3073235000,25.9430748000,-80.30732,25.94307
367822558,2083,kindergarten,Rojas Day Care Center,-80.3333333000,25.9313889000,-80.33333,25.93139
367822563,2083,kindergarten,Saint Cecilia Day Care Center,-80.3030556000,25.8480556000,-80.30306,25.84806
367822689,2083,kindergarten,Tutor Time Child Care Learning Center,-80.3258333000,25.9141667000,-80.32583,25.91417
367822723,2083,kindergarten,Young Children In Action Day Care Center,-80.3341667000,25.8761111000,-80.33417,25.87611
367822725,2083,kindergarten,Young America Number 2 Day Care Center,-80.2952778000,25.8436111000,-80.29528,25.84361
367822745,2083,kindergarten,Vasquez Day Care Center,-80.3025000000,25.8641667000,-80.3025,25.86417
367822773,2083,kindergarten,The Little House of Mary Day Care Center,-80.2858333000,25.8519444000,-80.28583,25.85194
367822797,2083,kindergarten,La Scala Preschool Il Bambino,-80.2827778000,25.8761111000,-80.28278,25.87611
367822802,2083,kindergarten,La Scala Preschool L'Enfant Day Care Center,-80.2891667000,25.8577778000,-80.28917,25.85778
367822850,2083,kindergarten,Meija Day Care Center,-80.3030556000,25.8566667000,-80.30306,25.85667
367822860,2083,kindergarten,Mar-Kiss Child Care Center,-80.2833333000,25.8636111000,-80.28333,25.86361
367822879,2083,kindergarten,Little Tigers Day Care Center,-80.2927778000,25.9194444000,-80.29278,25.91944
367822890,2083,kindergarten,Little Precious Day Care Center,-80.2850000000,25.9519444000,-80.285,25.95194
367822900,2083,kindergarten,Little Pumpkin Day Care Center,-80.3261111000,25.8841667000,-80.32611,25.88417
367822928,2083,kindergarten,Munoz Day Care Center,-80.2911111000,25.9488889000,-80.29111,25.94889
367823010,2083,kindergarten,New Generation Child Care and Development Center,-80.2816667000,25.9388889000,-80.28167,25.93889
367823013,2083,kindergarten,Nathalie's Day Care Center,-80.3272222000,25.8769444000,-80.32722,25.87694
367823017,2083,kindergarten,Our Lady of Charity Day Care Center,-80.3211111000,25.8625000000,-80.32111,25.8625
367823040,2083,kindergarten,Nuevo Amanacer Day Care Center,-80.3247222000,25.8688889000,-80.32472,25.86889
367823054,2083,kindergarten,Northwest Spanish Baptist Child Care,-80.3083333000,25.8972222000,-80.30833,25.89722
367823093,2083,kindergarten,Centro Mater West Day Care Center,-80.3338889000,25.8691667000,-80.33389,25.86917
367823186,2083,kindergarten,Happy Children Day Care Center,-80.3216667000,25.8844444000,-80.32167,25.88444
367823196,2083,kindergarten,Friendship Presbyterian Day Care Center,-80.3088889000,25.8725000000,-80.30889,25.8725
367823237,2083,kindergarten,Janero Day Care Center,-80.3270920000,25.9363791000,-80.32709,25.93638
367823273,2083,kindergarten,Kiddie Corner Academy,-80.3248245000,25.9408824000,-80.32482,25.94088
367823292,2083,kindergarten,Kiddie Wonderland Day Care Center,-80.2863889000,25.8477778000,-80.28639,25.84778
367823295,2083,kindergarten,Jesus Place Day Care Center,-80.3238889000,25.8777778000,-80.32389,25.87778
367823303,2083,kindergarten,Lakes Preschool,-80.3416667000,25.9422222000,-80.34167,25.94222
367823563,2083,kindergarten,Big Star Day Care Center,-80.3080556000,25.8602778000,-80.30806,25.86028
367823571,2083,kindergarten,Avila Day Care Center,-80.3447222000,25.8900000000,-80.34472,25.89
367823577,2083,kindergarten,Baker Day Care Center,-80.3111111000,25.9061111000,-80.31111,25.90611
367823579,2083,kindergarten,Bambi Land Day Care Center,-80.2988889000,25.8652778000,-80.29889,25.86528
367823586,2083,kindergarten,Castillo Day Care Center,-80.2847222000,25.9261111000,-80.28472,25.92611
367823593,2083,kindergarten,Borges Day Care Center,-80.2808333000,25.9455556000,-80.28083,25.94556
2715636455,2501,supermarket,Publix,-80.3500133000,25.8962767000,-80.35001,25.89628
3253564017,2501,supermarket,Aldi,-80.3499753000,25.8944409000,-80.34998,25.89444
3880368240,2501,supermarket,Publix,-80.3684264000,25.8420124000,-80.36843,25.84201
3884975182,2303,cafe,Starbucks,-80.3506592000,25.8926312000,-80.35066,25.89263
3884983966,2082,school,Hialeah Gardens High School,-80.3546182000,25.8808409000,-80.35462,25.88084
3884983970,2501,supermarket,Walmart Neighborhood Market,-80.3525529000,25.8811932000,-80.35255,25.88119
3884995607,2082,school,West Hialeah Gardens Elementary School,-80.3481326000,25.8819896000,-80.34813,25.88199
4740344521,2303,cafe,gina,-80.3174206000,25.9357480000,-80.31742,25.93575
5315601380,2501,supermarket,Walmart Supercenter,-80.2957600000,25.9357890000,-80.29576,25.93579
5588085815,2082,school,American Christian School,-80.3240735000,25.8781397000,-80.32407,25.87814
5857203727,2501,supermarket,Sedano's,-80.3293369000,25.8703314000,-80.32934,25.87033
6114228085,2303,cafe,Breadman Miami,-80.3241007000,25.8753102000,-80.3241,25.87531
358695411,2082,school,Epiphany School,-80.2833844000,25.6934355000,-80.28338,25.69344
358698943,2082,school,Lee School,-80.2933846000,25.7098238000,-80.29338,25.70982
358703144,2082,school,Pine Crest School,-80.2850513000,25.6762138000,-80.28505,25.67621
358707452,2082,school,Sunset Elementary School,-80.2764398000,25.7042684000,-80.27644,25.70427
358712257,2082,school,Kenwood Elementary School,-80.3233855000,25.6837137000,-80.32339,25.68371
358712268,2082,school,Ludlam Elementary School,-80.3006070000,25.7045463000,-80.30061,25.70455
358712883,2082,school,Henry S West Laboratory Elementary School,-80.2736618000,25.7212122000,-80.27366,25.72121
358727450,2082,school,Filadel Fia Christian School,-80.3392191000,25.7048242000,-80.33922,25.70482
358727454,2082,school,Academy of Arts of Miami,-80.3278300000,25.7103795000,-80.32783,25.71038
358727457,2082,school,Wayside Baptist Preschool,-80.3353304000,25.6764918000,-80.33533,25.67649
358727460,2082,school,Village Pines School,-80.2961626000,25.6828803000,-80.29616,25.68288
358727463,2082,school,Second Baptist Church Day Care Center,-80.2956070000,25.6881579000,-80.29561,25.68816
358727469,2082,school,Saint John Neumann Elementary School,-80.3267189000,25.6798250000,-80.32672,25.67982
358727478,2082,school,Learning Workshop,-80.2803288000,25.6926021000,-80.28033,25.6926
358727487,2082,school,House of Learning,-80.3183855000,25.6689920000,-80.31839,25.66899
358727505,2082,school,Concordia Lutheran Early Childhood Program,-80.3178299000,25.6770473000,-80.31783,25.67705
358727514,2082,school,Brandeis Academy,-80.3031072000,25.6806582000,-80.30311,25.68066
358727517,2082,school,Ascension Day Care Center,-80.3233855000,25.6839915000,-80.32339,25.68399
358727520,2082,school,Academicare Centers,-80.3319968000,25.6889914000,-80.332,25.68899
358727546,2082,school,Mize School,-80.3056074000,25.6592701000,-80.30561,25.65927
358727585,2082,school,A Childs Place,-80.3217186000,25.7031575000,-80.32172,25.70316
358727591,2082,school,Happi-Tymes Kindergarten,-80.3294967000,25.6987132000,-80.3295,25.69871
358727597,2082,school,Saint Albans Day Nursery - Second Campus,-80.3328301000,25.7153794000,-80.33283,25.71538
358727605,2082,school,Saint Thomas the Apostle School,-80.3006070000,25.7017686000,-80.30061,25.70177
358727620,2082,school,Sunset Montessori School,-80.3178300000,25.6662143000,-80.31783,25.66621
358727623,2082,school,Sunshine Cooperative Preschool,-80.2997739000,25.6692697000,-80.29977,25.66927
358727627,2082,school,Trinity Episcopal School,-80.2903292000,25.6748250000,-80.29033,25.67482
358727630,2082,school,Tropical Christian School,-80.3017184000,25.6639921000,-80.30172,25.66399
358727710,2082,school,McGlannan School and Language Arts Center,-80.2933849000,25.6606589000,-80.29338,25.66066
358727713,2082,school,Gateway Christian Elementary School,-80.3183854000,25.6734364000,-80.31839,25.67344
358727717,2082,school,A and A Academy South,-80.2900513000,25.6856580000,-80.29005,25.68566
358728068,2082,school,Carrollton School of the Sacred Heart,-80.2719952000,25.6964909000,-80.272,25.69649
358728072,2082,school,Coconut Grove Christian School,-80.2717172000,25.7170457000,-80.27172,25.71705
358728075,2082,school,Miami Private School,-80.2722729000,25.7156569000,-80.27227,25.71566
358728079,2082,school,Montessori International School,-80.2722729000,25.7062127000,-80.27227,25.70621
358728082,2082,school,Plymouth Preschool of Plymouth Congregational Church,-80.2689396000,25.7009352000,-80.26894,25.70094
358728088,2082,school,Saint Albans Day Nursery - Main Branch,-80.2694950000,25.7112125000,-80.2695,25.71121
358728693,2082,school,Sunset Preparatory School,-80.2747730000,25.7053795000,-80.27477,25.70538
358728837,2082,school,Growing House School,-80.2942179000,25.7087127000,-80.29422,25.70871
358728841,2082,school,Grace Baptist Academy,-80.2956071000,25.6712140000,-80.29561,25.67121
358728857,2082,school,School House,-80.2817176000,25.7017685000,-80.28172,25.70177
358728860,2082,school,Playhouse and Biltmore School,-80.2858844000,25.6989908000,-80.28588,25.69899
358728864,2082,school,New Life Presbyterian Kindergarten/Day Care,-80.2719951000,25.7156569000,-80.272,25.71566
358728879,2082,school,Glenn Neal School,-80.2969957000,25.7239900000,-80.297,25.72399
358728882,2082,school,Gables Academy of Miami,-80.2692171000,25.7239899000,-80.26922,25.72399
358728885,2082,school,Coral Villa Christian Academy,-80.2747730000,25.7114904000,-80.27477,25.71149
358728890,2082,school,Saint Agatha School,-80.3325525000,25.6795473000,-80.33255,25.67955
358728892,2082,school,Individualized Language Academy,-80.3358858000,25.6892692000,-80.33589,25.68927
358728895,2082,school,Florida Language Institute,-80.2928292000,25.6920467000,-80.29283,25.69205
358729143,2082,school,University Christian Academy,-80.3275524000,25.6698253000,-80.32755,25.66983
358729148,2082,school,Saint Timothy School,-80.3289413000,25.6823249000,-80.32894,25.68232
358729153,2082,school,Saint Brendan High School,-80.2844956000,25.6906578000,-80.2845,25.69066
358729155,2082,school,REM Learning Center,-80.3094963000,25.6823248000,-80.3095,25.68232
358729158,2082,school,Olympia Heights United Methodist Day Care,-80.2900154000,25.6796178000,-80.29002,25.67962
358729160,2082,school,Noahs Ark Christian Child Care Center,-80.2997739000,25.6753806000,-80.29977,25.67538
358729165,2082,school,Kings Christian School,-80.3011624000,25.7309343000,-80.30116,25.73093
358729866,2082,school,Kendall Academy,-80.3203297000,25.7170460000,-80.32033,25.71705
358730034,2082,school,Temple Judea,-80.2714703000,25.7179931000,-80.27147,25.71799
358730039,2082,school,Mark Flight Memorial School,-80.2892179000,25.6884357000,-80.28922,25.68844
358740951,2082,school,Wayside Baptist Preschool,-80.3186111000,25.6797222000,-80.31861,25.67972
358741121,2082,school,The French American School of Miami Day Care Center,-80.3402778000,25.7022222000,-80.34028,25.70222
358741128,2082,school,The Hamel School for Children,-80.3247222000,25.6663889000,-80.32472,25.66639
358741141,2082,school,Sunset Montessori School,-80.3141667000,25.7033333000,-80.31417,25.70333
358741256,2082,school,South Miami Head Start,-80.2925000000,25.7077778000,-80.2925,25.70778
358741262,2082,school,South Miami Lutheran School,-80.3092692000,25.7031050000,-80.30927,25.7031
358741291,2082,school,Southwest Miami Adult School,-80.3386111000,25.7216667000,-80.33861,25.72167
358741465,2082,school,Saint Louis Covenant School,-80.3119444000,25.6588889000,-80.31194,25.65889
358741478,2082,school,Saint Matthew's Cooperative Preschool,-80.3138889000,25.7033333000,-80.31389,25.70333
358741532,2082,school,Riviera Day School,-80.2812395000,25.7060021000,-80.28124,25.706
358741574,2082,school,Princeton Preschool,-80.2902778000,25.7077778000,-80.29028,25.70778
358741610,2082,school,Palmetto Presbyterian Preschool,-80.3038678000,25.7179214000,-80.30387,25.71792
358741772,2082,school,Our Lady of Lourdes Academy,-80.2830556000,25.6930556000,-80.28306,25.69306
358741788,2082,school,Paladin Academy,-80.3230556000,25.7169444000,-80.32306,25.71694
358742241,2082,school,Killian Montessori School,-80.3338889000,25.6661111000,-80.33389,25.66611
358742253,2082,school,Kings Creek Day School,-80.3236111000,25.6941667000,-80.32361,25.69417
358742295,2082,school,Jesus Fellowship Christian School,-80.3338889000,25.6800000000,-80.33389,25.68
358742324,2082,school,Jre Lee Educational Center,-80.2933333000,25.7094444000,-80.29333,25.70944
358742337,2082,school,Kendall Academy,-80.3162837000,25.7033159000,-80.31628,25.70332
358742341,2082,school,Kendall Christian School,-80.3319444000,25.6669444000,-80.33194,25.66694
358742344,2082,school,Kendall United Methodist Day School,-80.3185024000,25.6736384000,-80.3185,25.67364
358742350,2082,school,Kenwood School,-80.3241667000,25.6836111000,-80.32417,25.68361
358742556,2082,school,Gulliver South Miami Campus,-80.2852778000,25.6913889000,-80.28528,25.69139
358742565,2082,school,Happi Tymes Kindergarten,-80.3027778000,25.7036111000,-80.30278,25.70361
358742706,2082,school,Fairglade School,-80.3233333000,25.6830556000,-80.32333,25.68306
358742734,2082,school,District Instructional Center 9,-80.3052778000,25.7202778000,-80.30528,25.72028
358742910,2082,school,District Instructional Center 10,-80.3051317000,25.7200206000,-80.30513,25.72002
358742978,2082,school,Continental Academy,-80.2838889000,25.7069444000,-80.28389,25.70694
358743247,2082,school,Bilingual Cooperative Preschool,-80.2750000000,25.7050000000,-80.275,25.705
358743283,2082,school,Barrington Academy,-80.2900000000,25.7041667000,-80.29,25.70417
358743302,2082,school,Bet Breira Preschool,-80.3352778000,25.6825000000,-80.33528,25.6825
358743306,2082,school,Bet Breira School,-80.3350000000,25.6830556000,-80.335,25.68306
358743309,2082,school,Bet Shira Solomon Schechter Day School,-80.3169444000,25.6588889000,-80.31694,25.65889
358743312,2082,school,Beth Am Day School,-80.2900000000,25.6894444000,-80.29,25.68944
367818553,2083,kindergarten,University Christian Children's Center,-80.3025000000,25.7036111000,-80.3025,25.70361
367818561,2083,kindergarten,The Children's Center,-80.3375000000,25.6880556000,-80.3375,25.68806
367819328,2014,arts_centre,Miami Art Center,-80.3188889000,25.6886111000,-80.31889,25.68861
367819334,2014,arts_centre,Lowe Art Gallery,-80.2758333000,25.7191667000,-80.27583,25.71917
367822618,2083,kindergarten,South Miami Hospital Child Care Center,-80.2932299000,25.7030716000,-80.29323,25.70307
367822679,2083,kindergarten,Sunset Blossom F Michel Child Development Center,-80.3308333000,25.7025000000,-80.33083,25.7025
367822685,2083,kindergarten,The Children's House Day Care Center,-80.3162559000,25.6982535000,-80.31626,25.69825
367822741,2083,kindergarten,University of Miami Canterbury Child Care Center,-80.2750495000,25.7175236000,-80.27505,25.71752
367822781,2083,kindergarten,The Learning Garden Day Care Center,-80.3000000000,25.7283333000,-80.3,25.72833
367822787,2083,kindergarten,The Learning Tree II Day Care Center,-80.3325001000,25.7299999000,-80.3325,25.73
367822959,2083,kindergarten,Mount Nebo Community Day Care Center,-80.2922222000,25.7113889000,-80.29222,25.71139
367823095,2083,kindergarten,Child Care Center,-80.2788889000,25.7047222000,-80.27889,25.70472
367823101,2083,kindergarten,Children's Paradise Child Care Center,-80.3147222000,25.7133333000,-80.31472,25.71333
367823104,2083,kindergarten,Christain Day Care Center,-80.2872222000,25.7102778000,-80.28722,25.71028
367823155,2083,kindergarten,Evelyn Richardson Family Day Care Center,-80.2891667000,25.7136111000,-80.28917,25.71361
367823653,2083,kindergarten,Alpha and Omega Christian Day Care Center,-80.3207890000,25.7172837000,-80.32079,25.71728
367826998,2013,nursing_home,Snapper Creek Nursing Home,-80.3355556000,25.6838889000,-80.33556,25.68389
906018676,2303,cafe,Starbucks,-80.2872579000,25.7042208000,-80.28726,25.70422
1574905854,2501,supermarket,Whole Foods Market,-80.3248432000,25.6622838000,-80.32484,25.66228
3147106677,2501,supermarket,Whole Foods Market,-80.2851631000,25.7064826000,-80.28516,25.70648
3203993858,2303,cafe,Starbucks,-80.2741044000,25.7164715000,-80.2741,25.71647
3251156924,2501,supermarket,Trader Joe's,-80.3126040000,25.6844769000,-80.3126,25.68448
4936362341,2110,hospital,Baptist Children's Hospital,-80.3382285000,25.6840050000,-80.33823,25.684
4938027622,2303,cafe,Wall's Old Fashioned Ice Cream,-80.3008693000,25.6955974000,-80.30087,25.6956
5150733023,2501,supermarket,Winn-Dixie,-80.2888212000,25.7027580000,-80.28882,25.70276
5882286038,2303,cafe,Starbucks,-80.2787327000,25.7209345000,-80.27873,25.72093
5889637154,2012,community_centre,Gibson-Bethel Community Center,-80.2882307000,25.7091989000,-80.28823,25.7092
6025987202,2303,cafe,Starbucks,-80.3002669000,25.6949687000,-80.30027,25.69497
6028466842,2501,supermarket,Winn Dixie,-80.3347012000,25.7010318000,-80.3347,25.70103
6029688453,2501,supermarket,Whole Foods Market,-80.3231630000,25.6734694000,-80.32316,25.67347
7287105140,2501,supermarket,Wild Fork Foods,-80.2755589000,25.7151958000,-80.27556,25.7152
358694482,2082,school,Cutler Cove School,-80.3014409000,25.6317710000,-80.30144,25.63177
358727523,2082,school,Sunset Christian Academy,-80.3094965000,25.6542703000,-80.3095,25.65427
358727528,2082,school,A Big Childs Place,-80.3344972000,25.6367710000,-80.3345,25.63677
358727531,2082,school,All My Kids School,-80.3094966000,25.6376042000,-80.3095,25.6376
358727534,2082,school,Camelot School,-80.3314415000,25.6487150000,-80.33144,25.64872
358727538,2082,school,Childrens Hour Day School,-80.3433862000,25.6551037000,-80.34339,25.6551
358727542,2082,school,Good Shepherd Day Care Center,-80.3292192000,25.6426041000,-80.32922,25.6426
358727549,2082,school,Mount Olive Lutheran School,-80.3169968000,25.6337154000,-80.317,25.63372
358727708,2082,school,Small Fry Day Care - Fourth Campus,-80.2936628000,25.6512147000,-80.29366,25.65121
358728061,2082,school,Conchita Espinosa Academy,-80.3169966000,25.6556592000,-80.317,25.65566
358728065,2082,school,Belen Jesuit Preparatory School,-80.2939406000,25.6453816000,-80.29394,25.64538
358728681,2082,school,Three Cs Nursery,-80.3108854000,25.6520482000,-80.31089,25.65205
358728690,2082,school,Sunshine South Cooperative Preschool,-80.3094966000,25.6337154000,-80.3095,25.63372
358728750,2082,school,Pinelands Christian School,-80.3261636000,25.6503816000,-80.32616,25.65038
358728854,2082,school,Cutler Ridge Christian Academy,-80.3122743000,25.6503815000,-80.31227,25.65038
358730083,2082,school,Alexander-Montessori School,-80.3089411000,25.6364931000,-80.30894,25.63649
358730086,2082,school,Westminster Christian School,-80.3011631000,25.6314932000,-80.30116,25.63149
358730089,2082,school,Alexander Christian School,-80.3014409000,25.6331599000,-80.30144,25.63316
358735523,2082,school,Grant Center,-80.3136633000,25.6462150000,-80.31366,25.64622
358741030,2082,school,The Little Disciples Preschool,-80.3083333000,25.6372222000,-80.30833,25.63722
358741046,2082,school,Three Cs Preschool,-80.3011111000,25.6330556000,-80.30111,25.63306
358742974,2082,school,Concordia Lutheran Preschool and Kindergarten,-80.3347222000,25.6550000000,-80.33472,25.655
358743393,2082,school,Alexander School Campus 2,-80.3088889000,25.6369444000,-80.30889,25.63694
358743396,2082,school,Alexander School Campus 3,-80.3019444000,25.6330556000,-80.30194,25.63306
358743418,2082,school,American Academy,-80.3300000000,25.6530556000,-80.33,25.65306
367818894,2083,kindergarten,A Child's Place,-80.3300000000,25.6550000000,-80.33,25.655
358742723,2082,school,Feinberg-Fisher Head Start,-80.1316667000,25.7863889000,-80.13167,25.78639
367823087,2083,kindergarten,Raindrop Child Care Center,-80.1316662000,25.7863707000,-80.13167,25.78637
2697912493,2303,cafe,Caffe Di Mauro,-80.1319547000,25.7874409000,-80.13195,25.78744
2912773201,2303,cafe,FL Cafe,-80.1309778000,25.7852115000,-80.13098,25.78521
3448593180,2303,cafe,Starbucks,-80.1293292000,25.7868447000,-80.12933,25.78684
4189766131,2405,hostel,HI-Miami Beach,-80.1305008000,25.7878932000,-80.1305,25.78789
4232482001,2303,cafe,clay hotel,-80.1318783000,25.7867785000,-80.13188,25.78678
4928813924,2303,cafe,Juice and Java,-80.1320883000,25.7852968000,-80.13209,25.7853
5003396924,2303,cafe,The Front Porch Caf,-80.1297057000,25.7870813000,-80.12971,25.78708
5448684622,2405,hostel,Rock Hostel,-80.1307046000,25.7850123000,-80.1307,25.78501
5529687321,2405,hostel,Miami Beach International Hostel,-80.1311904000,25.7814620000,-80.13119,25.78146
5611563164,2504,mall,Anchor Shops & Parking,-80.1305867000,25.7890096000,-80.13059,25.78901
5633098921,2303,cafe,Aroma Espresso Bar,-80.1299590000,25.7894208000,-80.12996,25.78942
5645972221,2303,cafe,Cybr Caffe,-80.1319928000,25.7889367000,-80.13199,25.78894
5647693024,2081,university,FIU Architecture & The Arts,-80.1321042000,25.7898305000,-80.1321,25.78983
5837658985,2303,cafe,The Cat Caf South Beach,-80.1316405000,25.7863058000,-80.13164,25.78631
6037317486,2303,cafe,Starbucks,-80.1320713000,25.7831026000,-80.13207,25.7831
6736696685,2501,supermarket,M.B supermarket,-80.1319753000,25.7878078000,-80.13198,25.78781
358728099,2082,school,North Dade Christian School,-80.1400458000,25.8064867000,-80.14005,25.80649
358741154,2082,school,Talmudic University,-80.1416667000,25.7941667000,-80.14167,25.79417
367819407,2014,arts_centre,Garden Center Conservatory,-80.1354817000,25.7959275000,-80.13548,25.79593
367819408,2014,arts_centre,Miami Beach Theater of the Performing Arts,-80.1330963000,25.7929281000,-80.1331,25.79293
2082906460,2501,supermarket,Publix Supermarket,-80.1432137000,25.7953458000,-80.14321,25.79535
2082924032,2501,supermarket,Publix Supermarket,-80.1399255000,25.7945867000,-80.13993,25.79459
4940365821,2303,cafe,Panther Coffee,-80.1442516000,25.7946527000,-80.14425,25.79465
4945662322,2501,supermarket,The Fresh Market,-80.1427680000,25.7937430000,-80.14277,25.79374
367819331,2014,arts_centre,Jackie Gleason Theater of the Performing Arts,-80.1336111000,25.7925000000,-80.13361,25.7925
367823217,2083,kindergarten,Happy Kids Too Child Care Center,-80.1378599000,25.7923063000,-80.13786,25.79231
2815896023,2082,school,New World Symphony,-80.1333866000,25.7918475000,-80.13339,25.79185
3998497003,2303,cafe,Starbucks,-80.1324412000,25.7905039000,-80.13244,25.7905
3998497005,2303,cafe,Starbucks,-80.1343353000,25.7907732000,-80.13434,25.79077
3998497007,2303,cafe,Starbucks,-80.1364274000,25.7907402000,-80.13643,25.79074
3999743520,2303,cafe,Segafredo,-80.1397201000,25.7903281000,-80.13972,25.79033
7138149131,2303,cafe,The Caf at Books & Books,-80.1383176000,25.7905870000,-80.13832,25.79059
7138149146,2303,cafe,Peet's Coffee,-80.1394545000,25.7906530000,-80.13945,25.79065
7141713784,2303,cafe,taste BAKERY cafe,-80.1378548000,25.7914556000,-80.13785,25.79146
358742789,2082,school,Doral Academy Elementary,-80.3537651000,25.7947223000,-80.35377,25.79472
358743155,2082,school,Carlos Albizu University,-80.3575000000,25.7950000000,-80.3575,25.795
762671921,2084,college,Carlos Albizu University,-80.3549018000,25.7947127000,-80.3549,25.79471
3141603551,2303,cafe,Starbucks,-80.3684800000,25.7913217000,-80.36848,25.79132
4220217963,2303,cafe,Starbucks,-80.2803428000,25.7968876000,-80.28034,25.79689
5296701726,2303,cafe,Versailles,-80.2839680000,25.7952655000,-80.28397,25.79527
5296701728,2303,cafe,Fresh Attractions,-80.2841888000,25.7956063000,-80.28419,25.79561
6294825185,2303,cafe,,-80.3376811000,25.7986340000,-80.33768,25.79863
2806094936,2504,mall,RK Village Plaza - Raanan Katz Shopping Center,-80.1213624000,25.9442458000,-80.12136,25.94425
3151932634,2303,cafe,Starbucks,-80.1219996000,25.9345689000,-80.122,25.93457
4870803146,2303,cafe,Pizza Bianco,-80.1200625000,25.9545392000,-80.12006,25.95454
6027314276,2501,supermarket,Milam's Market,-80.1230429000,25.9342671000,-80.12304,25.93427
6027314623,2303,cafe,Wolsen Caff,-80.1222349000,25.9345595000,-80.12223,25.93456
6371328999,2303,cafe,Joe & The Juice,-80.1216858000,25.9398410000,-80.12169,25.93984
358694467,2082,school,Curtis School,-80.2742168000,25.8123201000,-80.27422,25.81232
358712550,2082,school,George T Baker Aviation School,-80.2636611000,25.8039871000,-80.26366,25.80399
358728232,2082,school,North Hialeah Baptist Kindergarten,-80.2467161000,25.8039870000,-80.24672,25.80399
358741183,2082,school,Teacher Education Center,-80.2744444000,25.8119444000,-80.27444,25.81194
358742540,2082,school,Grapeland Park Preschool,-80.2561111000,25.7883333000,-80.25611,25.78833
358742662,2082,school,George T Baker Aviation School,-80.2637266000,25.8039361000,-80.26373,25.80394
367822610,2083,kindergarten,Sunny Day Care Center,-80.2491667000,25.7875000000,-80.24917,25.7875
3448464000,2303,cafe,Starbucks,-80.2737085000,25.7917203000,-80.27371,25.79172
3448464001,2303,cafe,Starbucks,-80.2768469000,25.7924205000,-80.27685,25.79242
4220217965,2303,cafe,Starbucks,-80.2793342000,25.7955516000,-80.27933,25.79555
5903100401,2303,cafe,Juan Valdez Cafe,-80.2759516000,25.7972795000,-80.27595,25.79728
5903100412,2303,cafe,Cafe Versailles,-80.2748841000,25.7972481000,-80.27488,25.79725
5903100430,2303,cafe,Starbucks,-80.2727906000,25.7985038000,-80.27279,25.7985
5903100433,2303,cafe,Icebox Cafe,-80.2721737000,25.7985280000,-80.27217,25.79853
5903100436,2303,cafe,Cafe Versailles,-80.2717768000,25.7982322000,-80.27178,25.79823
358709981,2082,school,Goulds School,-80.3892211000,25.5684405000,-80.38922,25.56844
358728701,2082,school,Silver Palm School,-80.3858877000,25.5656627000,-80.38589,25.56566
358742420,2082,school,Isaac Withers Head Start,-80.3888889000,25.5686111000,-80.38889,25.56861
358742553,2082,school,Gulfstream Elementary Head Start,-80.3483724000,25.5723481000,-80.34837,25.57235
358742966,2082,school,Cutler Ridge United Methodist Kindergarten,-80.3402778000,25.5763889000,-80.34028,25.57639
358743103,2082,school,Children's Rainbow Day School,-80.3950000000,25.5536111000,-80.395,25.55361
358743334,2082,school,Arthur Mays Head Start,-80.3754843000,25.5658723000,-80.37548,25.56587
367818707,2083,kindergarten,La Petite Academy Number 3,-80.3511111000,25.5658333000,-80.35111,25.56583
367822598,2083,kindergarten,Project Thrive South Day Care Center,-80.3888889000,25.5686111000,-80.38889,25.56861
367822698,2083,kindergarten,Swain Day Care Center,-80.3744444000,25.5563889000,-80.37444,25.55639
367823259,2083,kindergarten,Heartland Preschool and Daycare Center,-80.3752623000,25.5717443000,-80.37526,25.57174
5315596646,2501,supermarket,Walmart Supercenter,-80.3761010000,25.5709180000,-80.3761,25.57092
5342930770,2303,cafe,Starbucks,-80.3682974000,25.5749144000,-80.3683,25.57491
5759568957,2501,supermarket,Publix,-80.3732495000,25.5503942000,-80.37325,25.55039
4928829324,2303,cafe,Pura vida,-80.1352448000,25.7702284000,-80.13524,25.77023
7251618685,2303,cafe,Starbucks,-80.1326865000,25.7706233000,-80.13269,25.77062
358709770,2082,school,Holtz High School,-80.1292120000,25.8014869000,-80.12921,25.80149
4189731418,2405,hostel,beds n' drink,-80.1308714000,25.7918214000,-80.13087,25.79182
4190800389,2405,hostel,freehand,-80.1297065000,25.8008910000,-80.12971,25.80089
4190907889,2405,hostel,freehand,-80.1263077000,25.8054293000,-80.12631,25.80543
5638862629,2303,cafe,Crema Espresso Bar,-80.1316431000,25.7896004000,-80.13164,25.7896
5638863131,2303,cafe,Joe & The Juice,-80.1304366000,25.7893345000,-80.13044,25.78933
5671616255,2402,motel,Ankara,-80.1279151000,25.8000325000,-80.12792,25.80003
5671616256,2303,cafe,Starbucks,-80.1250425000,25.8052448000,-80.12504,25.80524
7258342586,2303,cafe,Shepherd Artisan Coffee,-80.1252951000,25.8040940000,-80.1253,25.80409
358728822,2082,school,Lehrman Day School of Temple Emanu-el,-80.1331011000,25.7795433000,-80.1331,25.77954
367822603,2083,kindergarten,Rainbow Intergenerational Day Care Center,-80.1363889000,25.7758333000,-80.13639,25.77583
367823086,2083,kindergarten,Rainbow Miami Beach Day Care Center,-80.1369444000,25.7761111000,-80.13694,25.77611
3299591474,2405,hostel,Miami Beach International Travellers Hostel,-80.1327410000,25.7793745000,-80.13274,25.77937
4181168307,2303,cafe,Las Olas,-80.1349203000,25.7757668000,-80.13492,25.77577
4189824010,2405,hostel,SoBe Hostel&bar,-80.1343360000,25.7731757000,-80.13434,25.77318
4189839489,2405,hostel,Ocean Blue Hostel,-80.1309328000,25.7796047000,-80.13093,25.7796
4189849002,2405,hostel,Loft Hostel,-80.1319952000,25.7790567000,-80.132,25.77906
4939410821,2303,cafe,Shepherd,-80.1317001000,25.7797030000,-80.1317,25.7797
5097927622,2303,cafe,Aroma Espresso Bar,-80.1329403000,25.7752536000,-80.13294,25.77525
5227466121,2303,cafe,,-80.1357783000,25.7747573000,-80.13578,25.77476
6515317684,2303,cafe,Cafe del Mar,-80.1337484000,25.7772586000,-80.13375,25.77726
6573159085,2303,cafe,Cafe Bonjour,-80.1317936000,25.7792221000,-80.13179,25.77922
6573558085,2501,supermarket,Meridian Food Market & Cafe,-80.1363974000,25.7756477000,-80.1364,25.77565
6579421194,2303,cafe,Cafe Del Mar,-80.1337444000,25.7772973000,-80.13374,25.7773
7259840785,2303,cafe,Under the Mango Tree,-80.1357745000,25.7747056000,-80.13577,25.77471
358727996,2082,school,Cantwell Academy,-80.1908810000,25.7745436000,-80.19088,25.77454
358728193,2082,school,Eaton Day Care Center,-80.2022702000,25.7800989000,-80.20227,25.7801
358728237,2082,school,Our Lady of Fatima Nursery School,-80.1994923000,25.7837098000,-80.19949,25.78371
358728256,2082,school,Coral Gate Park Preschool,-80.2058815000,25.7698215000,-80.20588,25.76982
358736913,2082,school,Merritt Junior High School,-80.2050482000,25.7700992000,-80.20505,25.7701
358741092,2082,school,Trinity International University,-80.1950000000,25.7733333000,-80.195,25.77333
358741430,2082,school,Rosa Parks Community School-Overton,-80.2022222000,25.7819444000,-80.20222,25.78194
358741845,2082,school,New World School of the Arts,-80.1911111000,25.7772222000,-80.19111,25.77722
358741849,2082,school,New World School of the Arts,-80.1936111000,25.7761111000,-80.19361,25.77611
358741982,2082,school,Miami Dade Community College Mitchel Wolfson Campus,-80.1908333000,25.7766667000,-80.19083,25.77667
358742086,2082,school,Mater Academy East Campus,-80.2011111000,25.7694444000,-80.20111,25.76944
358742544,2082,school,Greater Bethel Head Start,-80.1986111000,25.7816667000,-80.19861,25.78167
358742630,2082,school,Frederick Douglas Head Start,-80.1999739000,25.7854161000,-80.19997,25.78542
358742964,2082,school,Culmer Place Head Start,-80.2050000000,25.7833333000,-80.205,25.78333
367819296,2014,arts_centre,Miami Dade Cultural Center,-80.1964202000,25.7744652000,-80.19642,25.77447
367822573,2083,kindergarten,Saint Johns Tot Center Day Care Center,-80.2000000000,25.7872222000,-80.2,25.78722
367822748,2083,kindergarten,YWCA Cain Towers Child Care Center,-80.1902778000,25.7788889000,-80.19028,25.77889
367823092,2083,kindergarten,Centro Mater Day Care Center,-80.2011111000,25.7700000000,-80.20111,25.77
367823169,2083,kindergarten,Downtown Toddler Club Day Care Center,-80.1872222000,25.7736111000,-80.18722,25.77361
367823581,2083,kindergarten,Carol Glasman Donaldson Child Care Center,-80.1961111000,25.7769444000,-80.19611,25.77694
1025644161,2303,cafe,Starbucks,-80.1891993000,25.7733161000,-80.1892,25.77332
2941412390,2303,cafe,Starbucks,-80.1850705000,25.7769151000,-80.18507,25.77692
3247556835,2084,college,New World School of the Arts,-80.1929913000,25.7763035000,-80.19299,25.7763
4235839089,2303,cafe,Cafe Papillon,-80.1885293000,25.7770983000,-80.18853,25.7771
4706018094,2303,cafe,Juan Valdez Caf,-80.1901761000,25.7753372000,-80.19018,25.77534
4773221378,2501,supermarket,Whole Foods Market,-80.1895294000,25.7722816000,-80.18953,25.77228
4993345321,2303,cafe,Clos Bistro & Cafe,-80.1878307000,25.7731166000,-80.18783,25.77312
4993345421,2303,cafe,Juan Valdez Cafe,-80.1880830000,25.7731357000,-80.18808,25.77314
5252165022,2303,cafe,La Province,-80.1890716000,25.7744010000,-80.18907,25.7744
5422663628,2303,cafe,LaMuse Cafe,-80.1893394000,25.7707606000,-80.18934,25.77076
5681821126,2501,supermarket,Whole Foods Market,-80.1891086000,25.7719444000,-80.18911,25.77194
6085573517,2303,cafe,Starbucks,-80.1945671000,25.7742736000,-80.19457,25.77427
6114013485,2303,cafe,Cafe Galleria,-80.1921838000,25.7734606000,-80.19218,25.77346
6114243285,2303,cafe,Atlantis Cafe,-80.1939485000,25.7750310000,-80.19395,25.77503
6575655588,2303,cafe,Coffee Shop Ground Floor,-80.1969318000,25.7761496000,-80.19693,25.77615
7844732308,2501,supermarket,Carribean Life,-80.1870331000,25.7784319000,-80.18703,25.77843
7844732317,2303,cafe,Cafe Con Leche,-80.1866766000,25.7783250000,-80.18668,25.77832
358706951,2082,school,Southside School,-80.1942144000,25.7617662000,-80.19421,25.76177
358727972,2082,school,Lingles School and Educational Clinic,-80.1983813000,25.7595441000,-80.19838,25.75954
358727992,2082,school,Childrens House,-80.1967145000,25.7637106000,-80.19671,25.76371
358728125,2082,school,Brickell Christian School,-80.1983813000,25.7587107000,-80.19838,25.75871
358728720,2082,school,Saint Faiths Episcopal School,-80.1956034000,25.7642661000,-80.1956,25.76427
358741287,2082,school,Southside Elementary School,-80.1941667000,25.7616667000,-80.19417,25.76167
358743186,2082,school,Brickell Christian School,-80.1899512000,25.7677154000,-80.18995,25.76772
367818800,2083,kindergarten,Brickell Children's Center,-80.1983333000,25.7625000000,-80.19833,25.7625
367822605,2083,kindergarten,Rainbow Little Havana Day Care Center,-80.2061111000,25.7661111000,-80.20611,25.76611
367822609,2083,kindergarten,Rainbow Day Care Center,-80.2058333000,25.7661111000,-80.20583,25.76611
367823074,2083,kindergarten,Renacer Day Care Center,-80.1991667000,25.7625000000,-80.19917,25.7625
367823284,2083,kindergarten,Holy Comforter Day Care Center,-80.1961111000,25.7613889000,-80.19611,25.76139
3106608955,2303,cafe,Starbucks,-80.1930941000,25.7651905000,-80.19309,25.76519
3561275393,2501,supermarket,Publix,-80.1990470000,25.7579810000,-80.19905,25.75798
3561275395,2501,supermarket,,-80.1990260000,25.7579760000,-80.19903,25.75798
4318643396,2082,school,OHLA,-80.1893427000,25.7651150000,-80.18934,25.76512
4462356806,2504,mall,Brickell City Centre,-80.1931376000,25.7671616000,-80.19314,25.76716
6055472235,2501,supermarket,Presidente Supermarket,-80.2031616000,25.7658708000,-80.20316,25.76587
6641176985,2303,cafe,Joe & The Juice,-80.1922117000,25.7591837000,-80.19221,25.75918
358699005,2082,school,Lewis School,-80.4850571000,25.4626115000,-80.48506,25.46261
358704137,2082,school,Redland School,-80.4525561000,25.5376086000,-80.45256,25.53761
358704715,2082,school,Sacred Heart School,-80.4761680000,25.4665002000,-80.47617,25.4665
358709978,2082,school,Sunrise School,-80.4539449000,25.5592745000,-80.45394,25.55927
358710004,2082,school,Nazarene School,-80.4081106000,25.5367750000,-80.40811,25.53678
358710039,2082,school,Homestead Junior Academy,-80.4736679000,25.4814997000,-80.47367,25.4815
358710066,2082,school,Cooper Educational Center,-80.4797792000,25.4753888000,-80.47978,25.47539
358710122,2082,school,Florida City Christian School,-80.4922796000,25.4462233000,-80.49228,25.44622
358712333,2082,school,N K Cooper Special Education Center,-80.4800570000,25.4748332000,-80.48006,25.47483
358712340,2082,school,Redondo Elementary School,-80.4911683000,25.4831664000,-80.49117,25.48317
358712358,2082,school,Leisure City Elementary School,-80.4339447000,25.4984433000,-80.43394,25.49844
358712435,2082,school,Redland Junior High School,-80.4525561000,25.5364975000,-80.45256,25.5365
358712844,2082,school,South Dade Skill Center,-80.4373029000,25.5053775000,-80.4373,25.50538
358727999,2082,school,Bertha Abess Childrens Center,-80.4370003000,25.4884437000,-80.437,25.48844
358728005,2082,school,Berkshire School,-80.4381114000,25.4989988000,-80.43811,25.499
358728010,2082,school,Dots Tots School,-80.4850571000,25.4709446000,-80.48506,25.47094
358728013,2082,school,First United Methodist Day School,-80.4735269000,25.4847686000,-80.47353,25.48477
358728016,2082,school,Happy Day School,-80.4870016000,25.4601116000,-80.487,25.46011
358728023,2082,school,Little Sunbeams Child Care Center,-80.4808903000,25.4798331000,-80.48089,25.47983
358728026,2082,school,Pathway Christian School,-80.4767236000,25.4637225000,-80.47672,25.46372
358728714,2082,school,Selah Christian Academy,-80.4817237000,25.4656670000,-80.48172,25.46567
358728734,2082,school,Redland Christian Academy,-80.4928350000,25.4767778000,-80.49284,25.47678
358729172,2082,school,Florida Christian School,-80.4747791000,25.4698334000,-80.47478,25.46983
358741242,2082,school,South Dade Adult School,-80.4750000000,25.4763889000,-80.475,25.47639
358741425,2082,school,Rosa Parks Community School,-80.4730556000,25.4702778000,-80.47306,25.47028
358741462,2082,school,Saint John's Episcopal School,-80.4740301000,25.4801922000,-80.47403,25.48019
358741568,2082,school,Primary Learning Center I,-80.4458333000,25.4791667000,-80.44583,25.47917
358741571,2082,school,Princeton Christian School,-80.4088889000,25.5369444000,-80.40889,25.53694
358741833,2082,school,Neva King Cooper Educational Center,-80.4808333000,25.4744444000,-80.48083,25.47444
358741975,2082,school,Miami Dade Community College,-80.4744444000,25.4741667000,-80.47444,25.47417
358742109,2082,school,Leisure City Head Start,-80.4319444000,25.4980556000,-80.43194,25.49806
358742113,2082,school,Leisure City K-8 Center,-80.4338889000,25.4983333000,-80.43389,25.49833
358742136,2082,school,Lincoln Marti Schools,-80.4775000000,25.4744444000,-80.4775,25.47444
358742140,2082,school,Lincoln Marti Schools,-80.4802778000,25.4800000000,-80.48028,25.48
358742177,2082,school,Lincoln-Marti School 15th Campus,-80.4780556000,25.4750000000,-80.47806,25.475
358742215,2082,school,Little A Academy,-80.4130556000,25.5419444000,-80.41306,25.54194
358742225,2082,school,Le Jardin Head Start Number 4,-80.4827778000,25.4716667000,-80.48278,25.47167
358742228,2082,school,Le Jardin Head Start Number 5,-80.4858333000,25.4477778000,-80.48583,25.44778
358742292,2082,school,Le Jardin Head Start Number 3,-80.4811111000,25.4697222000,-80.48111,25.46972
358742358,2082,school,Keys Gate Charter School,-80.4352202000,25.4513498000,-80.43522,25.45135
358742378,2082,school,Homestead Air Force Vocational School,-80.4461111000,25.4777778000,-80.44611,25.47778
358742499,2082,school,Happy Day School,-80.4805556000,25.4736111000,-80.48056,25.47361
358742576,2082,school,First Assembly Christian Academy,-80.4900000000,25.4477778000,-80.49,25.44778
358742589,2082,school,First Presbyterian Church School,-80.4786111000,25.4852778000,-80.47861,25.48528
358742591,2082,school,First United Methodist Day School,-80.4775000000,25.4755556000,-80.4775,25.47556
358742611,2082,school,Florida City Head Start,-80.4794444000,25.4602778000,-80.47944,25.46028
358743019,2082,school,Corporate Academy South,-80.4600000000,25.4486111000,-80.46,25.44861
358743043,2082,school,Colonial Christian School,-80.4680556000,25.4919444000,-80.46806,25.49194
358743120,2082,school,Christian Family Academy,-80.4361111000,25.5111111000,-80.43611,25.51111
358743224,2082,school,Butterfly Cooperative Preschool,-80.4527778000,25.4827778000,-80.45278,25.48278
358743237,2082,school,Campbell Drive Elementary Head Start,-80.4461877000,25.4818342000,-80.44619,25.48183
358743268,2082,school,Balere Language Academy,-80.4422222000,25.3886111000,-80.44222,25.38861
358743347,2082,school,Aspira Charter School South,-80.4202778000,25.4983333000,-80.42028,25.49833
358744826,2082,school,Redland Christian Academy,-80.4783333000,25.5116667000,-80.47833,25.51167
367818713,2083,kindergarten,Hudson Early Childhood Education Center,-80.4802778000,25.4602778000,-80.48028,25.46028
367818832,2083,kindergarten,Berkshire Infant Care,-80.4369444000,25.4972222000,-80.43694,25.49722
367822548,2083,kindergarten,Small World Day Care Center,-80.4251207000,25.5205179000,-80.42512,25.52052
367822620,2083,kindergarten,South Dade Child Care Center,-80.4308333000,25.5022222000,-80.43083,25.50222
367822663,2083,kindergarten,Small Fry Day Care Center,-80.4191667000,25.4997222000,-80.41917,25.49972
367822736,2083,kindergarten,Young America Day Care Center,-80.4072007000,25.4994160000,-80.4072,25.49942
367822813,2083,kindergarten,Kids R Us Day Care Center,-80.4488431000,25.4972754000,-80.44884,25.49728
367822884,2083,kindergarten,Love the Little Children Day Care Center,-80.4936111000,25.4675000000,-80.49361,25.4675
367822964,2083,kindergarten,Modello Head Start & Child Care Center,-80.4400000000,25.5050000000,-80.44,25.505
367823077,2083,kindergarten,Rcma South Dade Day Care Center,-80.4117295000,25.4740876000,-80.41173,25.47409
367823081,2083,kindergarten,Rcma Centro Village Day Care Center,-80.4933333000,25.4377778000,-80.49333,25.43778
367823084,2083,kindergarten,Rcha Everglades Day Care Center,-80.5038889000,25.4186111000,-80.50389,25.41861
367823088,2083,kindergarten,Countryside Early Learning Center,-80.4407514000,25.4995883000,-80.44075,25.49959
367823114,2083,kindergarten,Carol Day Care Center,-80.4047222000,25.5088889000,-80.40472,25.50889
367823147,2083,kindergarten,Everglade Child Development Center,-80.5050000000,25.4186111000,-80.505,25.41861
367823172,2083,kindergarten,Eighth Street Day Care Center,-80.4575000000,25.4772222000,-80.4575,25.47722
367823231,2083,kindergarten,Gonzalez Day Care Center,-80.4580556000,25.4955556000,-80.45806,25.49556
367823281,2083,kindergarten,Homestead Family YMCA Day Care Center,-80.4633333000,25.4772222000,-80.46333,25.47722
367823614,2083,kindergarten,Arc Project Thrive Number 4 Day Care Center,-80.4886111000,25.4477778000,-80.48861,25.44778
367823654,2083,kindergarten,Aim High Day Care Center,-80.4166667000,25.5233333000,-80.41667,25.52333
367823658,2083,kindergarten,Anderson's Kids Ranch Day Care Center,-80.4452778000,25.5508333000,-80.44528,25.55083
2999820946,2082,school,Miami Arts Charter School,-80.4332395000,25.4619515000,-80.43324,25.46195
3251177998,2501,supermarket,Aldi,-80.4756827000,25.4586972000,-80.47568,25.4587
4076601166,2402,motel,Fairway Inn Florida City,-80.4766830000,25.4467300000,-80.47668,25.44673
4076601167,2402,motel,Ramada Florida City,-80.4743738000,25.4488078000,-80.47437,25.44881
4076601168,2402,motel,Knights Inn Florida City Homestead South,-80.4744882000,25.4591168000,-80.47449,25.45912
4076601169,2402,motel,Everglades Motel,-80.4768456000,25.4641589000,-80.47685,25.46416
4076601171,2402,motel,Country Lodge Motel,-80.4777118000,25.4763987000,-80.47771,25.4764
4336395332,2402,motel,Floridian Hotel,-80.4643876000,25.4797755000,-80.46439,25.47978
4429132920,2303,cafe,Starbucks,-80.4757528000,25.4481940000,-80.47575,25.44819
4625635389,2405,hostel,Everglades International Hostel,-80.4796523000,25.4473527000,-80.47965,25.44735
4673340947,2501,supermarket,Publix,-80.4340997000,25.4752926000,-80.4341,25.47529
5279602260,2014,arts_centre,ArtSouth Sanctuary,-80.4776970000,25.4724013000,-80.4777,25.4724
5473019191,2402,motel,Super 8 Florida City/Homestead,-80.4778469000,25.4595280000,-80.47785,25.45953
5473019197,2402,motel,Park Motel,-80.4777557000,25.4640009000,-80.47776,25.464
5574212451,2501,supermarket,Walmart Neighborhood Market,-80.4238590000,25.5207390000,-80.42386,25.52074
5646293164,2501,supermarket,Publix,-80.4627471000,25.4785312000,-80.46275,25.47853
5646293172,2504,mall,Homestead Towne Square,-80.4630377000,25.4797175000,-80.46304,25.47972
5646293929,2303,cafe,Starbucks,-80.4634541000,25.4802260000,-80.46345,25.48023
5710119279,2402,motel,Budget Host Inn Florida City,-80.4765460000,25.4572588000,-80.47655,25.45726
1327323941,2303,cafe,Lakeside Cafe,-80.1745490000,25.7850187000,-80.17455,25.78502
358729079,2082,school,New Bethel Temple Day Care,-80.1567126000,25.9670365000,-80.15671,25.96704
358729712,2082,school,Saint Lawrence School,-80.1561571000,25.9514814000,-80.15616,25.95148
358740910,2082,school,Virginia A Boone-Highland Oaks School,-80.1550000000,25.9650000000,-80.155,25.965
358741177,2082,school,Tauber School at Aventura,-80.1419444000,25.9650000000,-80.14194,25.965
358741330,2082,school,Solomon Schecter Day School of North Dade,-80.1500000000,25.9650000000,-80.15,25.965
358743261,2082,school,Aventura Montessori School,-80.1477778000,25.9694444000,-80.14778,25.96944
367822569,2083,kindergarten,Saint Lawrence Child Care Center,-80.1569444000,25.9516667000,-80.15694,25.95167
367822628,2083,kindergarten,Spirit of Christ Child Development Center,-80.1480556000,25.9500000000,-80.14806,25.95
367822976,2083,kindergarten,Michael Ann Russell Jewish Community Day Care Center,-80.1510294000,25.9506081000,-80.15103,25.95061
2941496467,2501,supermarket,Winn-Dixie,-80.1431014000,25.9648685000,-80.1431,25.96487
5400949121,2082,school,Aventura Waterways,-80.1488844000,25.9709834000,-80.14888,25.97098
6029836527,2303,cafe,Starbucks,-80.1471321000,25.9438978000,-80.14713,25.9439
6032168281,2501,supermarket,Whole Foods Market,-80.1410709000,25.9711555000,-80.14107,25.97116
6032184636,2501,supermarket,Publix,-80.1434353000,25.9507498000,-80.14344,25.95075
6032396842,2084,college,Miami Dade College Learning Center,-80.1432636000,25.9652069000,-80.14326,25.96521
6106684117,2501,supermarket,Publix,-80.1411222000,25.9596305000,-80.14112,25.95963
6345720324,2303,cafe,Raw Jce,-80.1455981000,25.9605061000,-80.1456,25.96051
6363176252,2303,cafe,Starbucks,-80.1416715000,25.9557677000,-80.14167,25.95577
6577628742,2303,cafe,Little Brittany,-80.1429487000,25.9580966000,-80.14295,25.9581
6986233273,2303,cafe,Starbucks,-80.1420688000,25.9670868000,-80.14207,25.96709
7128335206,2501,supermarket,Aventura Square,-80.1457563000,25.9530434000,-80.14576,25.95304
7904429181,2303,cafe,Starbucks,-80.1461990000,25.9525951000,-80.1462,25.9526
358691120,2082,school,Auburndale School,-80.2481052000,25.7670439000,-80.24811,25.76704
358694523,2082,school,Dade School,-80.2519944000,25.7395449000,-80.25199,25.73954
358712195,2082,school,Coral Gables Elementary School,-80.2578278000,25.7539888000,-80.25783,25.75399
358712199,2082,school,Merrick Special Education Center,-80.2556054000,25.7573220000,-80.25561,25.75732
358712210,2082,school,Kinloch Park Elementary School,-80.2650501000,25.7725993000,-80.26505,25.7726
358712887,2082,school,Frances S Tucker Elementary School,-80.2544944000,25.7359339000,-80.25449,25.73593
358728112,2082,school,Grapeland Park Preschool,-80.2539388000,25.7684328000,-80.25394,25.76843
358729035,2082,school,Yolandas Garden School,-80.2636612000,25.7600997000,-80.26366,25.7601
358729037,2082,school,Saint Philips Episcopal School,-80.2747727000,25.7434338000,-80.27477,25.74343
358729043,2082,school,Pelican School,-80.2608835000,25.7351006000,-80.26088,25.7351
358729056,2082,school,Hamel School for Children,-80.2692170000,25.7392672000,-80.26922,25.73927
358729070,2082,school,Childrens Development Center,-80.2483830000,25.7725992000,-80.24838,25.7726
358729167,2082,school,Freedom Christian Academy,-80.2706058000,25.7656552000,-80.27061,25.76566
358729179,2082,school,Concord Christian Academy,-80.2539387000,25.7781546000,-80.25394,25.77815
358729258,2082,school,Miami Private School,-80.2464387000,25.7412114000,-80.24644,25.74121
358730353,2082,school,Merrick School,-80.2558832000,25.7570443000,-80.25588,25.75704
358730360,2082,school,Coral Gables School,-80.2575500000,25.7539888000,-80.25755,25.75399
358741898,2082,school,Nance School,-80.2552778000,25.7697222000,-80.25528,25.76972
358742320,2082,school,Jose Marti School 3rd Campus,-80.2469444000,25.7561111000,-80.24694,25.75611
358742364,2082,school,Kiddie Country Club School,-80.2633333000,25.7622222000,-80.26333,25.76222
358742390,2082,school,ICA Learning Center of America,-80.2526692000,25.7720992000,-80.25267,25.7721
358742537,2082,school,Granada Presbyterian Day School,-80.2727188000,25.7347414000,-80.27272,25.73474
358742684,2082,school,English Center Head Start,-80.2511111000,25.7388889000,-80.25111,25.73889
358742732,2082,school,District Instructional Center 8,-80.2624619000,25.7333670000,-80.26246,25.73337
358742985,2082,school,Coral Gables Adult School,-80.2627870000,25.7324840000,-80.26279,25.73248
358742990,2082,school,Coral Gables School for Children,-80.2552778000,25.7472222000,-80.25528,25.74722
358743195,2082,school,Brito Miami Private School,-80.2461111000,25.7408333000,-80.24611,25.74083
358743274,2082,school,Banyan Day School,-80.2613889000,25.7452778000,-80.26139,25.74528
358743369,2082,school,Aurora Academy,-80.2472222000,25.7352778000,-80.24722,25.73528
358743390,2082,school,Aleida's Nursery School,-80.2691667000,25.7750000000,-80.26917,25.775
358743469,2082,school,Academy for Community Education,-80.2569444000,25.7566667000,-80.25694,25.75667
367818548,2083,kindergarten,Yolanda's Garden School,-80.2627778000,25.7602778000,-80.26278,25.76028
367818723,2083,kindergarten,Kiddie Country Club,-80.2630556000,25.7619444000,-80.26306,25.76194
367819285,2014,arts_centre,Ara Gallery Cultural Center,-80.2556620000,25.7648740000,-80.25566,25.76487
367822638,2083,kindergarten,Snow White Day Care Center,-80.2625000000,25.7702778000,-80.2625,25.77028
367822683,2083,kindergarten,The Growing Place Day Care Center,-80.2655556000,25.7491667000,-80.26556,25.74917
367822713,2083,kindergarten,The Angels Place Day Care Center,-80.2461111000,25.7436111000,-80.24611,25.74361
367822760,2083,kindergarten,University Baptist Child Development Center,-80.2666315000,25.7416561000,-80.26663,25.74166
367822776,2083,kindergarten,The Pumpkin Share Day Care Center,-80.2475000000,25.7794444000,-80.2475,25.77944
367822894,2083,kindergarten,Mi Casita Day Care Center,-80.2526269000,25.7720197000,-80.25263,25.77202
367822977,2083,kindergarten,Mickey and Minnie Day Care Number 2,-80.2475000000,25.7372222000,-80.2475,25.73722
367822980,2083,kindergarten,Migdalia Valdes Family Day Care Center,-80.2702778000,25.7738889000,-80.27028,25.77389
367823006,2083,kindergarten,New Sunrise Day Care Center,-80.2547222000,25.7611111000,-80.25472,25.76111
367823055,2083,kindergarten,Petrona Spoto Family Day Care Center,-80.2727778000,25.7686111000,-80.27278,25.76861
367823096,2083,kindergarten,Child Care Laboratory,-80.2511111000,25.7388889000,-80.25111,25.73889
367823130,2083,kindergarten,Elsa Talero Family Day Care Home,-80.2669444000,25.7700000000,-80.26694,25.77
367823163,2083,kindergarten,Elvira Paulin Family Day Care Center,-80.2772222000,25.7761111000,-80.27722,25.77611
367823175,2083,kindergarten,Ebenezer Day Care Center,-80.2625000000,25.7686111000,-80.2625,25.76861
367823297,2083,kindergarten,Las Americas Day Care Center,-80.2522222000,25.7638889000,-80.25222,25.76389
367823310,2083,kindergarten,Kid Station Day Care Center,-80.2550000000,25.7597222000,-80.255,25.75972
367823566,2083,kindergarten,Aurora Medina Family Day Care Home,-80.2513889000,25.7580556000,-80.25139,25.75806
367823650,2083,kindergarten,Bethel Day Care Center,-80.2633333000,25.7613889000,-80.26333,25.76139
367823656,2083,kindergarten,Aleida Martinez Family Day Care Center,-80.2683333000,25.7688889000,-80.26833,25.76889
367826941,2013,nursing_home,Floridean Nursing Home,-80.2491667000,25.7722222000,-80.24917,25.77222
3156225270,2303,cafe,Starbucks Miracle Mille,-80.2605728000,25.7492686000,-80.26057,25.74927
3164289654,2501,supermarket,Publix,-80.2555625000,25.7576808000,-80.25556,25.75768
3261312006,2501,supermarket,Sedano's Supermarket,-80.2577240000,25.7722489000,-80.25772,25.77225
3604617724,2303,cafe,La Rosa Bakery,-80.2649325000,25.7717730000,-80.26493,25.77177
3623682226,2501,supermarket,Winn-Dixie,-80.2563035000,25.7813822000,-80.2563,25.78138
3843167590,2303,cafe,Graziano's Market,-80.2566083000,25.7512461000,-80.25661,25.75125
4146960714,2303,cafe,Bardo's Caffe,-80.2590614000,25.7558403000,-80.25906,25.75584
5906417801,2303,cafe,Liberty Caff,-80.2748029000,25.7531139000,-80.2748,25.75311
6014138093,2501,supermarket,Sedano's,-80.2741730000,25.7645341000,-80.27417,25.76453
6358297685,2501,supermarket,Publix,-80.2549038000,25.7711880000,-80.2549,25.77119
358691772,2082,school,Bethune School,-80.2431048000,25.8139866000,-80.2431,25.81399
358693929,2082,school,Comstock School,-80.2253266000,25.7992649000,-80.22533,25.79926
358694171,2082,school,Corpus Christi School,-80.2092148000,25.8067646000,-80.20921,25.80676
358696802,2082,school,Greater Miami Academy,-80.2261599000,25.8050980000,-80.22616,25.8051
358698049,2082,school,Jackson Junior High School,-80.2250487000,25.8100978000,-80.22505,25.8101
358705809,2082,school,Santa Clara School,-80.2125483000,25.8042647000,-80.21255,25.80426
358712172,2082,school,Miami Jackson Senior High School,-80.2247709000,25.8100978000,-80.22477,25.8101
358727650,2082,school,ABC Day Care Center,-80.1989368000,25.8048202000,-80.19894,25.80482
358727654,2082,school,Heritage School,-80.2044925000,25.8003759000,-80.20449,25.80038
358727657,2082,school,North Shores Child Care Center,-80.1864363000,25.8078756000,-80.18644,25.80788
358727661,2082,school,Northside Christian Day Care,-80.2253266000,25.8023203000,-80.22533,25.80232
358727669,2082,school,Shores School,-80.2003257000,25.8098200000,-80.20033,25.80982
358728109,2082,school,Kiddie Ranch Nursery and Kindergarten,-80.2206041000,25.8059314000,-80.2206,25.80593
358728129,2082,school,Lavernia School,-80.2344935000,25.8114867000,-80.23449,25.81149
358728229,2082,school,Kinderland Preparatory School,-80.2386603000,25.7992650000,-80.23866,25.79926
358728239,2082,school,Palm Springs Presbyterian Kindergarten,-80.2025480000,25.8073201000,-80.20255,25.80732
358728246,2082,school,West Hialeah Baptist Church Kindergarten,-80.2350491000,25.8073202000,-80.23505,25.80732
358728280,2082,school,Asbury Christian School,-80.2350491000,25.8100979000,-80.23505,25.8101
358728786,2082,school,Mueller Christian School,-80.2247709000,25.8073201000,-80.22477,25.80732
358728816,2082,school,Mary Immaculate Academy,-80.2344935000,25.8059314000,-80.23449,25.80593
358728825,2082,school,Learning School Number Two,-80.2150484000,25.7989871000,-80.21505,25.79899
358741995,2082,school,Miami Jackson Adult School,-80.2250000000,25.8100000000,-80.225,25.81
358742088,2082,school,Maya Angelou Elementary School,-80.2263889000,25.8050000000,-80.22639,25.805
358742330,2082,school,Juvenile Justice Center Alternative Education Center,-80.2427778000,25.8058333000,-80.24278,25.80583
358742837,2082,school,Ebenezer Christian Academy,-80.1988889000,25.8130556000,-80.19889,25.81306
358743350,2082,school,Aspira Eugenio Maria De Hostos School,-80.1961111000,25.8108333000,-80.19611,25.81083
367818718,2083,kindergarten,Kidco Learning Center,-80.1900000000,25.8111111000,-80.19,25.81111
367822744,2083,kindergarten,Village Fresh Start Day Care Center,-80.1877778000,25.8058333000,-80.18778,25.80583
367822785,2083,kindergarten,The Learning School 2 Day Care Center,-80.2333333000,25.8133333000,-80.23333,25.81333
367822949,2083,kindergarten,Moore Park Day Care Center,-80.2097222000,25.8100000000,-80.20972,25.81
367823238,2083,kindergarten,Jackson Day Care Center,-80.2211111000,25.8119444000,-80.22111,25.81194
367823277,2083,kindergarten,Kidco Child Care Center Number 3,-80.1922222000,25.8108333000,-80.19222,25.81083
1031032528,2303,cafe,Starbucks,-80.1892052000,25.8052489000,-80.18921,25.80525
1676975439,2303,cafe,La Provence French Bakery,-80.1893186000,25.7990127000,-80.18932,25.79901
2773797419,2303,cafe,Panther Coffee,-80.1992545000,25.7998970000,-80.19925,25.7999
3175197146,2303,cafe,Wynwood Cafe,-80.2025916000,25.8016130000,-80.20259,25.80161
4106412781,2303,cafe,Miami Under Ground,-80.2018034000,25.8014956000,-80.2018,25.8015
4193878243,2303,cafe,Bianchini Mercato,-80.1995637000,25.8020851000,-80.19956,25.80209
4205228308,2014,arts_centre,The Screening Room,-80.1992393000,25.8019208000,-80.19924,25.80192
